SITE_ID,Agency Codes,MINISTRY,AGENCY,STYPE,NAME,VENDOR_ID,HOTSPOT_ID,ZipCode,county,AREA,ADDR,LATITUDE,LONGITUDE,E-MINISTRY,E_AGENCY,E_STYPE,E_NAME,E_CITY,E_AREA,E_ADDR
TPEA000001,379010000A,臺北市政府,臺北市政府秘書處,行政機關,臺北市政府大樓B2F北區停車場司機休息室,中華電信,,110,臺北市,信義區,110臺北市信義區市府路1號,25.038475,121.564314,Taipei City Government,"Secretariat,Taipei City Government",Government Agency,"The driver lounge in North Wing parking lot on B2F, Taipei City Hall",Taipei City,Xinyi District,"No.1,City Hall Rd.,Xinyi Dist.,Taipei City110,Taiwan,R.O.C."
TPEA000002,379010000A,臺北市政府,臺北市政府秘書處,行政機關,臺北市政府大樓B2F東北區,中華電信,,110,臺北市,信義區,110臺北市信義區市府路1號,25.037819,121.564812,Taipei City Government,"Secretariat,Taipei City Government",Government Agency,"North-east Wing on B2F, Taipei City Hall",Taipei City,Xinyi District,"No.1,City Hall Rd.,Xinyi Dist.,Taipei City110,Taiwan,R.O.C."
TPEA000003,379010000A,臺北市政府,臺北市政府秘書處,行政機關,臺北市政府大樓B2F市府生活廣場,中華電信,,110,臺北市,信義區,110臺北市信義區市府路1號,25.037654,121.564547,Taipei City Government,"Secretariat,Taipei City Government",Government Agency,"Life plaza on B2F, Taipei City Hall",Taipei City,Xinyi District,"No.1,City Hall Rd.,Xinyi Dist.,Taipei City110,Taiwan,R.O.C."
TPEA000004,379010000A,臺北市政府,臺北市政府秘書處,行政機關,臺北市政府大樓B2F便利商店,中華電信,,110,臺北市,信義區,110臺北市信義區市府路1號,25.03753,121.564316,Taipei City Government,"Secretariat,Taipei City Government",Government Agency,"The convenience store on B2F, Taipei City Hall",Taipei City,Xinyi District,"No.1,City Hall Rd.,Xinyi Dist.,Taipei City110,Taiwan,R.O.C."
TPEA000005,379010000A,臺北市政府,臺北市政府秘書處,行政機關,臺北市政府大樓B2F郵局,中華電信,,110,臺北市,信義區,110臺北市信義區市府路1號,25.037825,121.564147,Taipei City Government,"Secretariat,Taipei City Government",Government Agency,"The post office on B2F, Taipei City Hall",Taipei City,Xinyi District,"No.1,City Hall Rd.,Xinyi Dist.,Taipei City110,Taiwan,R.O.C."
TPEA000006,379010000A,臺北市政府,臺北市政府秘書處,行政機關,臺北市政府大樓B2F西南區,中華電信,,110,臺北市,信義區,110臺北市信義區市府路1號,25.037186,121.564074,Taipei City Government,"Secretariat,Taipei City Government",Government Agency,"The South-west Wing on B2F, Taipei City Hall",Taipei City,Xinyi District,"No.1,City Hall Rd.,Xinyi Dist.,Taipei City110,Taiwan,R.O.C."
TPEA000007,379110000G,臺北市政府,臺北市政府工務局,行政機關,臺北市政府大樓B2F南區停車場司機休息室,中華電信,,110,臺北市,信義區,110臺北市信義區市府路1號,25.036578,121.564243,Taipei City Government,"Poblic Works Department,Taipei City Government",Government Agency,"The driver lounge in South Wing parking lot on B2F, Taipei City Hall",Taipei City,Xinyi District,"No.1,City Hall Rd.,Xinyi Dist.,Taipei City110,Taiwan,R.O.C."
TPEA000008,379010000A,臺北市政府,臺北市政府秘書處,行政機關,臺北市政府大樓B1F北區停車場西北側司機休息室,中華電信,,110,臺北市,信義區,110臺北市信義區市府路1號,25.038516,121.564128,Taipei City Government,"Secretariat,Taipei City Government",Government Agency,"The driver lounge of northwest area in North Wing parking lot on B1F, Taipei City Hall",Taipei City,Xinyi District,"No.1,City Hall Rd.,Xinyi Dist.,Taipei City110,Taiwan,R.O.C."
TPEA000009,379010000A,臺北市政府,臺北市政府秘書處,行政機關,臺北市政府大樓B1F北區停車場中央司機休息室,中華電信,,110,臺北市,信義區,110臺北市信義區市府路1號,25.038311,121.564635,Taipei City Government,"Secretariat,Taipei City Government",Government Agency,"The driver lounge of central area in North Wing parking lot on B1F, Taipei City Hall",Taipei City,Xinyi District,"No.1,City Hall Rd.,Xinyi Dist.,Taipei City110,Taiwan,R.O.C."
TPEA000010,379010000A,臺北市政府,臺北市政府秘書處,行政機關,臺北市政府大樓B1F北區停車場東北側司機休息室,中華電信,,110,臺北市,信義區,110臺北市信義區市府路1號,25.038449,121.564993,Taipei City Government,"Department of Environmental Protection,Taipei City Government",Government Agency,"The driver lounge of northeast area in North Wing parking lot on B1F, Taipei City Hall",Taipei City,Xinyi District,"No.1,City Hall Rd.,Xinyi Dist.,Taipei City110,Taiwan,R.O.C."
TPEA000012,379010000A,臺北市政府,臺北市政府秘書處,行政機關,臺北市政府大樓B1F公管中心,中華電信,,110,臺北市,信義區,110臺北市信義區市府路1號,25.037646,121.564113,Taipei City Government,"Secretariat,Taipei City Government",Government Agency,"City Hall Management Office on B1F, Taipei City Hall",Taipei City,Xinyi District,"No.1,City Hall Rd.,Xinyi Dist.,Taipei City110,Taiwan,R.O.C."
TPEA000013,379010000A,臺北市政府,臺北市政府秘書處,行政機關,臺北市政府大樓B1F餐廳北側,中華電信,,110,臺北市,信義區,110臺北市信義區市府路1號,25.037656,121.564849,Taipei City Government,"Secretariat,Taipei City Government",Government Agency,"The north area of Cafeteria on B1F, Taipei City Hall",Taipei City,Xinyi District,"No.1,City Hall Rd.,Xinyi Dist.,Taipei City110,Taiwan,R.O.C."
TPEA000014,379010000A,臺北市政府,臺北市政府秘書處,行政機關,臺北市政府大樓B1F餐廳中央,中華電信,,110,臺北市,信義區,110臺北市信義區市府路1號,25.037536,121.564853,Taipei City Government,"Secretariat,Taipei City Government",Government Agency,"The central area of  Cafeteria on B1F, Taipei City Hall",Taipei City,Xinyi District,"No.1,City Hall Rd.,Xinyi Dist.,Taipei City110,Taiwan,R.O.C."
TPEA000015,379010000A,臺北市政府,臺北市政府秘書處,行政機關,臺北市政府大樓B1F餐廳南側,中華電信,,110,臺北市,信義區,110臺北市信義區市府路1號,25.0374,121.564847,Taipei City Government,"Secretariat,Taipei City Government",Government Agency,"The south area of Cafeteria on B1F, Taipei City Hall",Taipei City,Xinyi District,"No.1,City Hall Rd.,Xinyi Dist.,Taipei City110,Taiwan,R.O.C."
TPEA000016,379130000C,臺北市政府,臺北市政府警察局,行政機關,臺北市政府大樓B1F駐警隊,中華電信,,110,臺北市,信義區,110臺北市信義區市府路1號,25.037491,121.5642,Taipei City Government,Taipei City Police Department,Government Agency,"Security Unit on B1F, Taipei City Hall",Taipei City,Xinyi District,"No.1,City Hall Rd.,Xinyi Dist.,Taipei City110,Taiwan,R.O.C."
TPEA000017,379010000A,臺北市政府,臺北市政府秘書處,行政機關,臺北市政府大樓B1F餐廳門口,中華電信,,110,臺北市,信義區,110臺北市信義區市府路1號,25.037383,121.564495,Taipei City Government,"Department of Health,Taipei City Government",Government Agency,"The entrance of Cafeteria on B1F, Taipei City Hall",Taipei City,Xinyi District,"No.1,City Hall Rd.,Xinyi Dist.,Taipei City110,Taiwan,R.O.C."
TPEA000018,379030000D,臺北市政府,臺北市政府財政局,行政機關,臺北市政府大樓B1F公庫處,中華電信,,110,臺北市,信義區,110臺北市信義區市府路1號,25.037161,121.564335,Taipei City Government,"Department of Information Technology,Taipei City Government",Government Agency,"City Treasury on B1F, Taipei City Hall",Taipei City,Xinyi District,"No.1,City Hall Rd.,Xinyi Dist.,Taipei City110,Taiwan,R.O.C."
TPEA000019,379010000A,臺北市政府,臺北市政府秘書處,行政機關,臺北市政府大樓B1F南區停車場西南側司機休息室,中華電信,,110,臺北市,信義區,110臺北市信義區市府路1號,25.036649,121.563996,Taipei City Government,"Secretariat,Taipei City Government",Government Agency,"The driver lounge of  southwest area in South Wing parking lot on B1F, Taipei City Hall",Taipei City,Xinyi District,"No.1,City Hall Rd.,Xinyi Dist.,Taipei City110,Taiwan,R.O.C."
TPEA000020,379010000A,臺北市政府,臺北市政府秘書處,行政機關,臺北市政府大樓B1F南區停車場中央司機休息室,中華電信,,110,臺北市,信義區,110臺北市信義區市府路1號,25.036821,121.564607,Taipei City Government,"Secretariat,Taipei City Government",Government Agency,"The driver lounge of central area in South Wing parking lot on B1F, Taipei City Hall",Taipei City,Xinyi District,"No.1,City Hall Rd.,Xinyi Dist.,Taipei City110,Taiwan,R.O.C."
TPEA000021,379010000A,臺北市政府,臺北市政府秘書處,行政機關,臺北市政府大樓B1F南區停車場東南側司機休息室,中華電信,,110,臺北市,信義區,110臺北市信義區市府路1號,25.036554,121.56502,Taipei City Government,"Secretariat,Taipei City Government",Government Agency,"The driver lounge of south area in South Wing parking lot on B1F, Taipei City Hall",Taipei City,Xinyi District,"No.1,City Hall Rd.,Xinyi Dist.,Taipei City110,Taiwan,R.O.C."
TPEA000022,379010000A,臺北市政府,臺北市政府秘書處,行政機關,臺北市政府大樓1F北大門,中華電信,,110,臺北市,信義區,110臺北市信義區市府路1號,25.03847,121.564382,Taipei City Government,"Secretariat,Taipei City Government",Government Agency,"North Gate, Taipei City Hall",Taipei City,Xinyi District,"No.1,City Hall Rd.,Xinyi Dist.,Taipei City110,Taiwan,R.O.C."
TPEA000023,379670000G,臺北市政府,臺北市政府產業發展局,行政機關,臺北市政府大樓1F北區東側辦公室北方,中華電信,,110,臺北市,信義區,110臺北市信義區市府路1號,25.038371,121.564521,Taipei City Government,"Department of Economic Development,Taipei City Government",Government Agency,"The northern office of east area in North Wing on 1F, Taipei City Hall",Taipei City,Xinyi District,"No.1,City Hall Rd.,Xinyi Dist.,Taipei City110,Taiwan,R.O.C."
TPEA000024,379670000G,臺北市政府,臺北市政府產業發展局,行政機關,臺北市政府大樓1F北區東側辦公室南方,中華電信,,110,臺北市,信義區,110臺北市信義區市府路1號,25.038073,121.564531,Taipei City Government,"Department of Economic Development,Taipei City Government",Government Agency,"The southern office of east area iin North Wing on 1F, Taipei City Hall",Taipei City,Xinyi District,"No.1,City Hall Rd.,Xinyi Dist.,Taipei City110,Taiwan,R.O.C."
TPEA000025,379120000J,臺北市政府,臺北市政府社會局,行政機關,臺北市政府大樓1F東北區東側,中華電信,,110,臺北市,信義區,110臺北市信義區市府路1號,25.037824,121.564987,Taipei City Government,"Department of Social Welfare,Taipei City Government",Government Agency,"The east area in North-east Wing on 1F, Taipei City Hall",Taipei City,Xinyi District,"No.1,City Hall Rd.,Xinyi Dist.,Taipei City110,Taiwan,R.O.C."
TPEA000026,379120000J,臺北市政府,臺北市政府社會局,行政機關,臺北市政府大樓1F東北區西側,中華電信,,110,臺北市,信義區,110臺北市信義區市府路1號,25.03783,121.56478,Taipei City Government,"Department of Social Welfare,Taipei City Government",Government Agency,"The west area in North-east Wing on 1F, Taipei City Hall",Taipei City,Xinyi District,"No.1,City Hall Rd.,Xinyi Dist.,Taipei City110,Taiwan,R.O.C."
TPEA000027,379030000D,臺北市政府,臺北市政府財政局,行政機關,臺北市政府大樓1F西北區,中華電信,,110,臺北市,信義區,110臺北市信義區市府路1號,25.037847,121.564147,Taipei City Government,"Department of Finance,Taipei City Government",Government Agency,"North-west Wing on 1F, Taipei City Hall",Taipei City,Xinyi District,"No.1,City Hall Rd.,Xinyi Dist.,Taipei City110,Taiwan,R.O.C."
TPEA000028,379670000G,臺北市政府,臺北市政府產業發展局,行政機關,臺北市政府大樓1F北區西側辦公室東北方,中華電信,,110,臺北市,信義區,110臺北市信義區市府路1號,25.038378,121.56416,Taipei City Government,"Department of Economic Development,Taipei City Government",Government Agency,"The northeastern office of west area in North Wing on 1F, Taipei City Hall",Taipei City,Xinyi District,"No.1,City Hall Rd.,Xinyi Dist.,Taipei City110,Taiwan,R.O.C."
TPEA000029,379670000G,臺北市政府,臺北市政府產業發展局,行政機關,臺北市政府大樓1F北區通道公用電話亭,中華電信,,110,臺北市,信義區,110臺北市信義區市府路1號,25.038069,121.564266,Taipei City Government,"Department of Economic Development,Taipei City Government",Government Agency,"The Public Telephone on North Wing hallway on 1F, Taipei City Hall",Taipei City,Xinyi District,"No.1,City Hall Rd.,Xinyi Dist.,Taipei City110,Taiwan,R.O.C."
TPEA000030,379670000G,臺北市政府,臺北市政府產業發展局,行政機關,臺北市政府大樓1F北區西側辦公室西南方,中華電信,,110,臺北市,信義區,110臺北市信義區市府路1號,25.038084,121.564074,Taipei City Government,"Department of Economic Development,Taipei City Government",Government Agency,"The southwesern officet of west area in North Wing on 1F, Taipei City Hall",Taipei City,Xinyi District,"No.1,City Hall Rd.,Xinyi Dist.,Taipei City110,Taiwan,R.O.C."
TPEA000031,379010000A,臺北市政府,臺北市政府秘書處,行政機關,臺北市政府大樓1F東區,中華電信,,110,臺北市,信義區,110臺北市信義區市府路1號,25.037534,121.56482,Taipei City Government,"Secretariat,Taipei City Government",Government Agency,"East Wing on 1F, Taipei City Hall",Taipei City,Xinyi District,"No.1,City Hall Rd.,Xinyi Dist.,Taipei City110,Taiwan,R.O.C."
TPEA000032,379010000A,臺北市政府,臺北市政府秘書處,行政機關,臺北市政府大樓1F東大門,中華電信,,110,臺北市,信義區,110臺北市信義區市府路1號,25.037527,121.565093,Taipei City Government,"Secretariat,Taipei City Government",Government Agency,"East Gate, Taipei City Hall",Taipei City,Xinyi District,"No.1,City Hall Rd.,Xinyi Dist.,Taipei City110,Taiwan,R.O.C."
TPEA000033,379010000A,臺北市政府,臺北市政府秘書處,行政機關,臺北市政府大樓1F南大門,中華電信,,110,臺北市,信義區,110臺北市信義區市府路1號,25.036571,121.564508,Taipei City Government,"Secretariat,Taipei City Government",Government Agency,"South Gate, Taipei City Hall",Taipei City,Xinyi District,"No.1,City Hall Rd.,Xinyi Dist.,Taipei City110,Taiwan,R.O.C."
TPEA000034,379560000G,臺北市政府,臺北市政府都市發展局,行政機關,臺北市政府大樓1F南區東側辦公室東南方,中華電信,,110,臺北市,信義區,110臺北市信義區市府路1號,25.036668,121.564511,Taipei City Government,"Department of Urban Develpment,Taipei City Government",Government Agency,"The southeastern office of east area in South Wing on 1F, Taipei City Hall",Taipei City,Xinyi District,"No.1,City Hall Rd.,Xinyi Dist.,Taipei City110,Taiwan,R.O.C."
TPEA000035,379560000G,臺北市政府,臺北市政府都市發展局,行政機關,臺北市政府大樓1F南區東側辦公室北側門口,中華電信,,110,臺北市,信義區,110臺北市信義區市府路1號,25.036932,121.564525,Taipei City Government,"Department of Urban Develpment,Taipei City Government",Government Agency,"The north office entrance  of east area in South Wing on 1F, Taipei City Hall",Taipei City,Xinyi District,"No.1,City Hall Rd.,Xinyi Dist.,Taipei City110,Taiwan,R.O.C."
TPEA000036,379140000I,臺北市政府,臺北市政府衛生局,行政機關,臺北市政府大樓1F東南區東側,中華電信,,110,臺北市,信義區,110臺北市信義區市府路1號,25.037176,121.564979,Taipei City Government,"Department of Health,Taipei City Government",Government Agency,"The east area in South-east Wing on 1F, Taipei City Hall",Taipei City,Xinyi District,"No.1,City Hall Rd.,Xinyi Dist.,Taipei City110,Taiwan,R.O.C."
TPEA000037,379140000I,臺北市政府,臺北市政府衛生局,行政機關,臺北市政府大樓1F東南區西側,中華電信,,110,臺北市,信義區,110臺北市信義區市府路1號,25.037171,121.564751,Taipei City Government,"Department of Health,Taipei City Government",Government Agency,"The west area in South-east Wing on 1F, Taipei City Hall",Taipei City,Xinyi District,"No.1,City Hall Rd.,Xinyi Dist.,Taipei City110,Taiwan,R.O.C."
TPEA000038,379010000A,臺北市政府,臺北市政府秘書處,行政機關,臺北市政府大樓1F西南區提款機前,中華電信,,110,臺北市,信義區,110臺北市信義區市府路1號,25.03721,121.564247,Taipei City Government,"Secretariat,Taipei City Government",Government Agency,"Front of ATM in South-east Wing on 1F, Taipei City Hall",Taipei City,Xinyi District,"No.1,City Hall Rd.,Xinyi Dist.,Taipei City110,Taiwan,R.O.C."
TPEA000039,379560000G,臺北市政府,臺北市政府都市發展局,行政機關,臺北市政府大樓1F南區西側辦公室東南方,中華電信,,110,臺北市,信義區,110臺北市信義區市府路1號,25.036722,121.564144,Taipei City Government,"Department of Urban Develpment,Taipei City Government",Government Agency,"The southeastern office of west area in South Wing on 1F, Taipei City Hall",Taipei City,Xinyi District,"No.1,City Hall Rd.,Xinyi Dist.,Taipei City110,Taiwan,R.O.C."
TPEA000040,379560000G,臺北市政府,臺北市政府都市發展局,行政機關,臺北市政府大樓1F南區西側辦公室北側門外,中華電信,,110,臺北市,信義區,110臺北市信義區市府路1號,25.037083,121.564296,Taipei City Government,"Department of Urban Develpment,Taipei City Government",Government Agency,"Outside the north office entrance of west area in South Wing on 1F, Taipei City Hall",Taipei City,Xinyi District,"No.1,City Hall Rd.,Xinyi Dist.,Taipei City110,Taiwan,R.O.C."
TPEA000041,379560000G,臺北市政府,臺北市政府都市發展局,行政機關,臺北市政府大樓1F南區西側辦公室西北方,中華電信,,110,臺北市,信義區,110臺北市信義區市府路1號,25.03718,121.564068,Taipei City Government,"Department of Urban Develpment,Taipei City Government",Government Agency,"The northwestern office of west area in South Wing on 1F, Taipei City Hall",Taipei City,Xinyi District,"No.1,City Hall Rd.,Xinyi Dist.,Taipei City110,Taiwan,R.O.C."
TPEA000042,379010000A,臺北市政府,臺北市政府秘書處,行政機關,臺北市政府大樓1F中央南區辦公室,中華電信,,110,臺北市,信義區,110臺北市信義區市府路1號,25.037408,121.5646,Taipei City Government,"Secretariat,Taipei City Government",Government Agency,"The office of south area in Central Area on 1F, Taipei City Hall",Taipei City,Xinyi District,"No.1,City Hall Rd.,Xinyi Dist.,Taipei City110,Taiwan,R.O.C."
TPEA000043,379010000A,臺北市政府,臺北市政府秘書處,行政機關,臺北市政府大樓1F中央區中央走道,中華電信,,110,臺北市,信義區,110臺北市信義區市府路1號,25.037506,121.564512,Taipei City Government,"Secretariat,Taipei City Government",Government Agency,"The hallway in Central Area on 1F, Taipei City Hall",Taipei City,Xinyi District,"No.1,City Hall Rd.,Xinyi Dist.,Taipei City110,Taiwan,R.O.C."
TPEA000044,379120000J,臺北市政府,臺北市政府社會局,行政機關,臺北市政府大樓1F中央北區辦公室,中華電信,,110,臺北市,信義區,110臺北市信義區市府路1號,25.037621,121.564588,Taipei City Government,"Department of Social Welfare,Taipei City Government",Government Agency,"The office of north area in Central Area on 1F, Taipei City Hall",Taipei City,Xinyi District,"No.1,City Hall Rd.,Xinyi Dist.,Taipei City110,Taiwan,R.O.C."
TPEA000045,379010000A,臺北市政府,臺北市政府秘書處,行政機關,臺北市政府大樓1F西區商店門口,中華電信,,110,臺北市,信義區,110臺北市信義區市府路1號,25.037627,121.563982,Taipei City Government,"Secretariat,Taipei City Government",Government Agency,"The store entrance in West Wing on 1F, Taipei City Hall",Taipei City,Xinyi District,"No.1,City Hall Rd.,Xinyi Dist.,Taipei City110,Taiwan,R.O.C."
TPEA000046,379010000A,臺北市政府,臺北市政府秘書處,行政機關,臺北市政府大樓1F西大門,中華電信,,110,臺北市,信義區,110臺北市信義區市府路1號,25.037547,121.563824,Taipei City Government,"Secretariat,Taipei City Government",Government Agency,"West Gate, Taipei City Hall",Taipei City,Xinyi District,"No.1,City Hall Rd.,Xinyi Dist.,Taipei City110,Taiwan,R.O.C."
TPEA000047,379040000E,臺北市政府,臺北市政府教育局,行政機關,臺北市政府大樓2F北區北側辦公室,中華電信,,110,臺北市,信義區,110臺北市信義區市府路1號,25.038462,121.564402,Taipei City Government,"Department of Education,Taipei City Government",Government Agency,"The office of north area in North Wing on 2F, Taipei City Hall",Taipei City,Xinyi District,"No.1,City Hall Rd.,Xinyi Dist.,Taipei City110,Taiwan,R.O.C."
TPEA000048,379010000A,臺北市政府,臺北市政府秘書處,行政機關,臺北市政府大樓2F北區中庭東北側第二間小辨公室,中華電信,,110,臺北市,信義區,110臺北市信義區市府路1號,25.038357,121.56447,Taipei City Government,"Secretariat,Taipei City Government",Government Agency,"The No.2 small office within northwestern central courtyard in North Wing on 2F, Taipei City Hall",Taipei City,Xinyi District,"No.1,City Hall Rd.,Xinyi Dist.,Taipei City110,Taiwan,R.O.C."
TPEA000049,379670000G,臺北市政府,臺北市政府產業發展局,行政機關,臺北市政府大樓2F北區東側大辦公室北方,中華電信,,110,臺北市,信義區,110臺北市信義區市府路1號,25.038371,121.564521,Taipei City Government,"Department of Economic Development,Taipei City Government",Government Agency,"The northern large office of east area in North Wing on 2F, Taipei City Hall",Taipei City,Xinyi District,"No.1,City Hall Rd.,Xinyi Dist.,Taipei City110,Taiwan,R.O.C."
TPEA000050,379120000J,臺北市政府,臺北市政府社會局,行政機關,臺北市政府大樓2F北區東側大辦公室南方,中華電信,,110,臺北市,信義區,110臺北市信義區市府路1號,25.038073,121.564531,Taipei City Government,"Department of Social Welfare,Taipei City Government",Government Agency,"The southern large office of east area in North Wing on 2F, Taipei City Hall",Taipei City,Xinyi District,"No.1,City Hall Rd.,Xinyi Dist.,Taipei City110,Taiwan,R.O.C."
TPEA000051,379120000J,臺北市政府,臺北市政府社會局,行政機關,臺北市政府大樓2F東北區東側,中華電信,,110,臺北市,信義區,110臺北市信義區市府路1號,25.037824,121.564987,Taipei City Government,"Department of Social Welfare,Taipei City Government",Government Agency,"The east area in North-east Wing on 2F, Taipei City Hall",Taipei City,Xinyi District,"No.1,City Hall Rd.,Xinyi Dist.,Taipei City110,Taiwan,R.O.C."
TPEA000052,379120000J,臺北市政府,臺北市政府社會局,行政機關,臺北市政府大樓2F東北區西側,中華電信,,110,臺北市,信義區,110臺北市信義區市府路1號,25.03783,121.56478,Taipei City Government,"Department of Social Welfare,Taipei City Government",Government Agency,"The west area in North-east Wing on 2F, Taipei City Hall",Taipei City,Xinyi District,"No.1,City Hall Rd.,Xinyi Dist.,Taipei City110,Taiwan,R.O.C."
TPEA000053,379010000A,臺北市政府,臺北市政府秘書處,行政機關,臺北市政府大樓2F北電梯旁通道,中華電信,,110,臺北市,信義區,110臺北市信義區市府路1號,25.037819,121.564547,Taipei City Government,"Secretariat,Taipei City Government",Government Agency,"The hallway next to the northern elevator on 2F, Taipei City Hall",Taipei City,Xinyi District,"No.1,City Hall Rd.,Xinyi Dist.,Taipei City110,Taiwan,R.O.C."
TPEA000054,379010000A,臺北市政府,臺北市政府秘書處,行政機關,臺北市政府大樓2F西北區東側,中華電信,,110,臺北市,信義區,110臺北市信義區市府路1號,25.037842,121.564327,Taipei City Government,"Secretariat,Taipei City Government",Government Agency,"The east area in Northwest Wing on 2F, Taipei City Hall",Taipei City,Xinyi District,"No.1,City Hall Rd.,Xinyi Dist.,Taipei City110,Taiwan,R.O.C."
TPEA000055,379010000A,臺北市政府,臺北市政府秘書處,行政機關,臺北市政府大樓2F西北區西側,中華電信,,110,臺北市,信義區,110臺北市信義區市府路1號,25.037842,121.564053,Taipei City Government,"Secretariat,Taipei City Government",Government Agency,"The west area in Northwest Wing on 2F, Taipei City Hall",Taipei City,Xinyi District,"No.1,City Hall Rd.,Xinyi Dist.,Taipei City110,Taiwan,R.O.C."
TPEA000056,379010000A,臺北市政府,臺北市政府秘書處,行政機關,臺北市政府大樓2FN206會議室,中華電信,,110,臺北市,信義區,110臺北市信義區市府路1號,25.038388,121.564225,Taipei City Government,"Secretariat,Taipei City Government",Government Agency,"N206 Meeting Room on 2F, Taipei City Hall",Taipei City,Xinyi District,"No.1,City Hall Rd.,Xinyi Dist.,Taipei City110,Taiwan,R.O.C."
TPEA000057,379010000A,臺北市政府,臺北市政府秘書處,行政機關,臺北市政府大樓2FN203會議室,中華電信,,110,臺北市,信義區,110臺北市信義區市府路1號,25.038331,121.564066,Taipei City Government,"Secretariat,Taipei City Government",Government Agency,"N203 Meeting Room on 2F, Taipei City Hall",Taipei City,Xinyi District,"No.1,City Hall Rd.,Xinyi Dist.,Taipei City110,Taiwan,R.O.C."
TPEA000058,379010000A,臺北市政府,臺北市政府秘書處,行政機關,臺北市政府大樓2FN202會議室中間,中華電信,,110,臺北市,信義區,110臺北市信義區市府路1號,25.038221,121.564153,Taipei City Government,"Secretariat,Taipei City Government",Government Agency,"The north of N202 Meeting Room on 2F, Taipei City Hall",Taipei City,Xinyi District,"No.1,City Hall Rd.,Xinyi Dist.,Taipei City110,Taiwan,R.O.C."
TPEA000059,379010000A,臺北市政府,臺北市政府秘書處,行政機關,臺北市政府大樓2FN202會議室左側,中華電信,,110,臺北市,信義區,110臺北市信義區市府路1號,25.038146,121.564208,Taipei City Government,"Secretariat,Taipei City Government",Government Agency,"N207 Meeting Room on 2F, Taipei City Hall",Taipei City,Xinyi District,"No.1,City Hall Rd.,Xinyi Dist.,Taipei City110,Taiwan,R.O.C."
TPEA000060,379010000A,臺北市政府,臺北市政府秘書處,行政機關,臺北市政府大樓2FN201會議室中間,中華電信,,110,臺北市,信義區,110臺北市信義區市府路1號,25.03811,121.564081,Taipei City Government,"Secretariat,Taipei City Government",Government Agency,"The south of N202 Meeting Room on 2F, Taipei City Hall",Taipei City,Xinyi District,"No.1,City Hall Rd.,Xinyi Dist.,Taipei City110,Taiwan,R.O.C."
TPEA000061,379590700E,臺北市政府,臺北市藝文推廣處,藝文場館,臺北市政府大樓2F親子劇場舞台右前側門口,中華電信,,110,臺北市,信義區,110臺北市信義區市府路1號,25.037616,121.564959,Taipei City Government,"Department of Cultural Affairs,Taipei City Government",Art and Culture Facilities,"The right  entrance of the stage in Family Theater on 2F, Taipei City Hall",Taipei City,Xinyi District,"No.1,City Hall Rd.,Xinyi Dist.,Taipei City110,Taiwan,R.O.C."
TPEA000062,379590700E,臺北市政府,臺北市藝文推廣處,藝文場館,臺北市政府大樓2F親子劇場舞台左前側門口,中華電信,,110,臺北市,信義區,110臺北市信義區市府路1號,25.037398,121.564946,Taipei City Government,"Department of Cultural Affairs,Taipei City Government",Art and Culture Facilities,"The left  entrance of the stage in Family Theater on 2F, Taipei City Hall",Taipei City,Xinyi District,"No.1,City Hall Rd.,Xinyi Dist.,Taipei City110,Taiwan,R.O.C."
TPEA000063,379560000G,臺北市政府,臺北市政府都市發展局,行政機關,臺北市政府大樓2F南區南側辦公室,中華電信,,110,臺北市,信義區,110臺北市信義區市府路1號,25.036587,121.564339,Taipei City Government,"Department of Urban Develpment,Taipei City Government",Government Agency,"The office of south area in South Wing on 2F, Taipei City Hall",Taipei City,Xinyi District,"No.1,City Hall Rd.,Xinyi Dist.,Taipei City110,Taiwan,R.O.C."
TPEA000064,379560000G,臺北市政府,臺北市政府都市發展局,行政機關,臺北市政府大樓2F南區東側辦公室南方,中華電信,,110,臺北市,信義區,110臺北市信義區市府路1號,25.036668,121.564511,Taipei City Government,"Department of Urban Develpment,Taipei City Government",Government Agency,"The southern office of east area in South Wing on 2F, Taipei City Hall",Taipei City,Xinyi District,"No.1,City Hall Rd.,Xinyi Dist.,Taipei City110,Taiwan,R.O.C."
TPEA000065,379560000G,臺北市政府,臺北市政府都市發展局,行政機關,臺北市政府大樓2F南區東側辦公室北方,中華電信,,110,臺北市,信義區,110臺北市信義區市府路1號,25.036932,121.564525,Taipei City Government,"Department of Urban Develpment,Taipei City Government",Government Agency,"The northern office of east area in South Wing on 2F, Taipei City Hall",Taipei City,Xinyi District,"No.1,City Hall Rd.,Xinyi Dist.,Taipei City110,Taiwan,R.O.C."
TPEA000066,379140000I,臺北市政府,臺北市政府衛生局,行政機關,臺北市政府大樓2F東南區東側,中華電信,,110,臺北市,信義區,110臺北市信義區市府路1號,25.037176,121.564979,Taipei City Government,"Department of Health,Taipei City Government",Government Agency,"The east area in South-east Wing on 2F, Taipei City Hall",Taipei City,Xinyi District,"No.1,City Hall Rd.,Xinyi Dist.,Taipei City110,Taiwan,R.O.C."
TPEA000067,379140000I,臺北市政府,臺北市政府衛生局,行政機關,臺北市政府大樓2F東南區西側,中華電信,,110,臺北市,信義區,110臺北市信義區市府路1號,25.037171,121.564751,Taipei City Government,"Department of Health,Taipei City Government",Government Agency,"The west area in South-east Wing on 2F, Taipei City Hall",Taipei City,Xinyi District,"No.1,City Hall Rd.,Xinyi Dist.,Taipei City110,Taiwan,R.O.C."
TPEA000068,379010000A,臺北市政府,臺北市政府秘書處,行政機關,臺北市政府大樓2F南電梯旁通道,中華電信,,110,臺北市,信義區,110臺北市信義區市府路1號,25.037193,121.564538,Taipei City Government,"Secretariat,Taipei City Government",Government Agency,"The hallway next to the southern elevator on 2F, Taipei City Hall",Taipei City,Xinyi District,"No.1,City Hall Rd.,Xinyi Dist.,Taipei City110,Taiwan,R.O.C."
TPEA000069,379040000E,臺北市政府,臺北市政府教育局,行政機關,臺北市政府大樓2F南區西側辦公室南方,中華電信,,110,臺北市,信義區,110臺北市信義區市府路1號,25.036652,121.564174,Taipei City Government,"Department of Education,Taipei City Government",Government Agency,"The southern office of west area in South Wing on 2F, Taipei City Hall",Taipei City,Xinyi District,"No.1,City Hall Rd.,Xinyi Dist.,Taipei City110,Taiwan,R.O.C."
TPEA000070,379560000G,臺北市政府,臺北市政府都市發展局,行政機關,臺北市政府大樓2F南區西側辦公室北方,中華電信,,110,臺北市,信義區,110臺北市信義區市府路1號,25.036958,121.564187,Taipei City Government,"Department of Urban Develpment,Taipei City Government",Government Agency,"The northern office of west area in South Wing on 2F, Taipei City Hall",Taipei City,Xinyi District,"No.1,City Hall Rd.,Xinyi Dist.,Taipei City110,Taiwan,R.O.C."
TPEA000071,379560000G,臺北市政府,臺北市政府都市發展局,行政機關,臺北市政府大樓2F西南區,中華電信,,110,臺北市,信義區,110臺北市信義區市府路1號,25.037198,121.564147,Taipei City Government,"Department of Urban Develpment,Taipei City Government",Government Agency,"South-west Wing on 2F, Taipei City Hall",Taipei City,Xinyi District,"No.1,City Hall Rd.,Xinyi Dist.,Taipei City110,Taiwan,R.O.C."
TPEA000072,379660000E,臺北市政府,臺北市政府觀光傳播局,行政機關,臺北市政府大樓2F中央南區休息區,中華電信,,110,臺北市,信義區,110臺北市信義區市府路1號,25.037412,121.564504,Taipei City Government,"Department of Information and Tourism,Taipei City Government",Government Agency,"The Lounge of south area in Central Area on 2F, Taipei City Hall",Taipei City,Xinyi District,"No.1,City Hall Rd.,Xinyi Dist.,Taipei City110,Taiwan,R.O.C."
TPEA000073,379660000E,臺北市政府,臺北市政府觀光傳播局,行政機關,臺北市政府大樓2F中央北區休息區,中華電信,,110,臺北市,信義區,110臺北市信義區市府路1號,25.037656,121.564523,Taipei City Government,"Department of Information and Tourism,Taipei City Government",Government Agency,"The Lounge of north area in Central Area on 2F, Taipei City Hall",Taipei City,Xinyi District,"No.1,City Hall Rd.,Xinyi Dist.,Taipei City110,Taiwan,R.O.C."
TPEA000074,379660000E,臺北市政府,臺北市政府觀光傳播局,藝文場館,臺北市政府大樓2F探索館特展廳,中華電信,,110,臺北市,信義區,110臺北市信義區市府路1號,25.037417,121.563992,Taipei City Government,"Department of Information and Tourism,Taipei City Government",Art and Culture Facilities,"Special Exhibition Hall of Discovery Center on 2F, Taipei City Hall",Taipei City,Xinyi District,"No.1,City Hall Rd.,Xinyi Dist.,Taipei City110,Taiwan,R.O.C."
TPEA000075,379660000E,臺北市政府,臺北市政府觀光傳播局,藝文場館,臺北市政府大樓2F探索館北棟辦公室,中華電信,,110,臺北市,信義區,110臺北市信義區市府路1號,25.037649,121.56396,Taipei City Government,"Department of Information and Tourism,Taipei City Government",Art and Culture Facilities,"The northern office of Discovery Center  on 2F, Taipei City Hall",Taipei City,Xinyi District,"No.1,City Hall Rd.,Xinyi Dist.,Taipei City110,Taiwan,R.O.C."
TPEA000076,379660000E,臺北市政府,臺北市政府觀光傳播局,藝文場館,臺北市政府大樓2F探索館南棟樓梯,中華電信,,110,臺北市,信義區,110臺北市信義區市府路1號,25.037426,121.564195,Taipei City Government,"Department of Information and Tourism,Taipei City Government",Art and Culture Facilities,"The southern stairs of Discovery Center  on 2F, Taipei City Hall",Taipei City,Xinyi District,"No.1,City Hall Rd.,Xinyi Dist.,Taipei City110,Taiwan,R.O.C."
TPEA000077,379660000E,臺北市政府,臺北市政府觀光傳播局,藝文場館,臺北市政府大樓2F探索館北棟樓梯,中華電信,,110,臺北市,信義區,110臺北市信義區市府路1號,25.037654,121.564199,Taipei City Government,"Department of Information and Tourism,Taipei City Government",Art and Culture Facilities,"The northern stairs of Discovery Center  on 2F, Taipei City Hall",Taipei City,Xinyi District,"No.1,City Hall Rd.,Xinyi Dist.,Taipei City110,Taiwan,R.O.C."
TPEA000078,379120000J,臺北市政府,臺北市政府社會局,行政機關,臺北市政府大樓3F北區北側辦公室,中華電信,,110,臺北市,信義區,110臺北市信義區市府路1號,25.038471,121.56437,Taipei City Government,"Department of Social Welfare,Taipei City Government",Government Agency,"The office of north area in  North Wing on 3F,  Taipei City Hall",Taipei City,Xinyi District,"No.1,City Hall Rd.,Xinyi Dist.,Taipei City110,Taiwan,R.O.C."
TPEA000079,379700000A,臺北市政府,臺北市政府地政局,行政機關,臺北市政府大樓3F北區東側辦公室北方,中華電信,,110,臺北市,信義區,110臺北市信義區市府路1號,25.038371,121.564521,Taipei City Government,"Department of Land,Taipei City Government",Government Agency,"The northern office of east area in South Wing on 3F,  Taipei City Hall",Taipei City,Xinyi District,"No.1,City Hall Rd.,Xinyi Dist.,Taipei City110,Taiwan,R.O.C."
TPEA000080,379700000A,臺北市政府,臺北市政府地政局,行政機關,臺北市政府大樓3F北區東側辦公室南方,中華電信,,110,臺北市,信義區,110臺北市信義區市府路1號,25.038073,121.564531,Taipei City Government,"Department of Land,Taipei City Government",Government Agency,"The southern office of east area in South Wing on 3F,  Taipei City Hall",Taipei City,Xinyi District,"No.1,City Hall Rd.,Xinyi Dist.,Taipei City110,Taiwan,R.O.C."
TPEA000081,379700000A,臺北市政府,臺北市政府地政局,行政機關,臺北市政府大樓3F東北區東側,中華電信,,110,臺北市,信義區,110臺北市信義區市府路1號,25.037824,121.564987,Taipei City Government,"Department of Land,Taipei City Government",Government Agency,"The east area in North-east Wing on 3F,  Taipei City Hall",Taipei City,Xinyi District,"No.1,City Hall Rd.,Xinyi Dist.,Taipei City110,Taiwan,R.O.C."
TPEA000082,379700000A,臺北市政府,臺北市政府地政局,行政機關,臺北市政府大樓3F東北區西側,中華電信,,110,臺北市,信義區,110臺北市信義區市府路1號,25.03783,121.56478,Taipei City Government,"Department of Land,Taipei City Government",Government Agency,"The west area in North-east Wing on 3F,  Taipei City Hall",Taipei City,Xinyi District,"No.1,City Hall Rd.,Xinyi Dist.,Taipei City110,Taiwan,R.O.C."
TPEA000083,379010000A,臺北市政府,臺北市政府秘書處,行政機關,臺北市政府大樓3F北電梯旁通道,中華電信,,110,臺北市,信義區,110臺北市信義區市府路1號,25.037819,121.564547,Taipei City Government,"Secretariat,Taipei City Government",Government Agency,"The hallway next to the northern elevator on 3F,  Taipei City Hall",Taipei City,Xinyi District,"No.1,City Hall Rd.,Xinyi Dist.,Taipei City110,Taiwan,R.O.C."
TPEA000084,379700000A,臺北市政府,臺北市政府地政局,行政機關,臺北市政府大樓3F西北區樓梯前,中華電信,,110,臺北市,信義區,110臺北市信義區市府路1號,25.037842,121.564327,Taipei City Government,"Department of Land,Taipei City Government",Government Agency,"Front of the stairs in North-west Wing on 3F,  Taipei City Hall",Taipei City,Xinyi District,"No.1,City Hall Rd.,Xinyi Dist.,Taipei City110,Taiwan,R.O.C."
TPEA000085,379700000A,臺北市政府,臺北市政府地政局,行政機關,臺北市政府大樓3F西北區辦公室,中華電信,,110,臺北市,信義區,110臺北市信義區市府路1號,25.037842,121.564053,Taipei City Government,"Department of Land,Taipei City Government",Government Agency,"The office in North-west Wing on 3F,  Taipei City Hall",Taipei City,Xinyi District,"No.1,City Hall Rd.,Xinyi Dist.,Taipei City110,Taiwan,R.O.C."
TPEA000086,379700000A,臺北市政府,臺北市政府地政局,行政機關,臺北市政府大樓3F北區西側辦公室南方,中華電信,,110,臺北市,信義區,110臺北市信義區市府路1號,25.038091,121.56421,Taipei City Government,"Department of Land,Taipei City Government",Government Agency,"The southern office of west area  in North Wing on 3F,  Taipei City Hall",Taipei City,Xinyi District,"No.1,City Hall Rd.,Xinyi Dist.,Taipei City110,Taiwan,R.O.C."
TPEA000087,379700000A,臺北市政府,臺北市政府地政局,行政機關,臺北市政府大樓3F北區西側辦公室北方,中華電信,,110,臺北市,信義區,110臺北市信義區市府路1號,25.038361,121.564205,Taipei City Government,"Department of Land,Taipei City Government",Government Agency,"The northern office of west area  in North Wing on 3F,  Taipei City Hall",Taipei City,Xinyi District,"No.1,City Hall Rd.,Xinyi Dist.,Taipei City110,Taiwan,R.O.C."
TPEA000088,379590700E,臺北市政府,臺北市藝文推廣處,藝文場館,臺北市政府大樓3F親子劇場辦公室,中華電信,,110,臺北市,信義區,110臺北市信義區市府路1號,25.037615,121.56508,Taipei City Government,"Department of Cultural Affairs,Taipei City Government",Art and Culture Facilities,"The office of Family Theater on 3F, City Hall Building",Taipei City,Xinyi District,"No.1,City Hall Rd.,Xinyi Dist.,Taipei City110,Taiwan,R.O.C."
TPEA000089,379590700E,臺北市政府,臺北市藝文推廣處,藝文場館,臺北市政府大樓3F親子劇場座位區北方,中華電信,,110,臺北市,信義區,110臺北市信義區市府路1號,25.037627,121.564774,Taipei City Government,"Department of Cultural Affairs,Taipei City Government",Art and Culture Facilities,"The north of seating area in Family Theater on 3F,  Taipei City Hall",Taipei City,Xinyi District,"No.1,City Hall Rd.,Xinyi Dist.,Taipei City110,Taiwan,R.O.C."
TPEA000090,379590700E,臺北市政府,臺北市藝文推廣處,藝文場館,臺北市政府大樓3F親子劇場座位區西方,中華電信,,110,臺北市,信義區,110臺北市信義區市府路1號,25.037539,121.564697,Taipei City Government,"Department of Cultural Affairs,Taipei City Government",Art and Culture Facilities,"The west of seating area in Family Theater on 3F,  Taipei City Hall",Taipei City,Xinyi District,"No.1,City Hall Rd.,Xinyi Dist.,Taipei City110,Taiwan,R.O.C."
TPEA000091,379590700E,臺北市政府,臺北市藝文推廣處,藝文場館,臺北市政府大樓3F親子劇場座位區東南方,中華電信,,110,臺北市,信義區,110臺北市信義區市府路1號,25.037392,121.564792,Taipei City Government,"Department of Cultural Affairs,Taipei City Government",Art and Culture Facilities,"The southeast of seating area in Family Theater on 3F,  Taipei City Hall",Taipei City,Xinyi District,"No.1,City Hall Rd.,Xinyi Dist.,Taipei City110,Taiwan,R.O.C."
TPEA000092,379660000E,臺北市政府,臺北市政府觀光傳播局,行政機關,臺北市政府大樓3F中央北區辦公室,中華電信,,110,臺北市,信義區,110臺北市信義區市府路1號,25.037671,121.564339,Taipei City Government,"Department of Information and Tourism,Taipei City Government",Government Agency,"The office of north area in Central Area on 3F,  Taipei City Hall",Taipei City,Xinyi District,"No.1,City Hall Rd.,Xinyi Dist.,Taipei City110,Taiwan,R.O.C."
TPEA000093,379660000E,臺北市政府,臺北市政府觀光傳播局,行政機關,臺北市政府大樓3F中央區中央辦公室,中華電信,,110,臺北市,信義區,110臺北市信義區市府路1號,25.037569,121.564298,Taipei City Government,"Department of Information and Tourism,Taipei City Government",Government Agency,"The office of central area  in Central Area on 3F,  Taipei City Hall",Taipei City,Xinyi District,"No.1,City Hall Rd.,Xinyi Dist.,Taipei City110,Taiwan,R.O.C."
TPEA000094,379110000G,臺北市政府,臺北市政府工務局,行政機關,臺北市政府大樓3F南區南側辦公室,中華電信,,110,臺北市,信義區,110臺北市信義區市府路1號,25.036616,121.564345,Taipei City Government,"Poblic Works Department,Taipei City Government",Government Agency,"The office of south area in South Wing on 3F,  Taipei City Hall",Taipei City,Xinyi District,"No.1,City Hall Rd.,Xinyi Dist.,Taipei City110,Taiwan,R.O.C."
TPEA000095,379110000G,臺北市政府,臺北市政府工務局,行政機關,臺北市政府大樓3F南區S304開標室門口,中華電信,,110,臺北市,信義區,110臺北市信義區市府路1號,25.036798,121.564526,Taipei City Government,"Poblic Works Department,Taipei City Government",Government Agency,"The  entrance of S304 Tender Opening Room in  South Wing on 3F,  Taipei City Hall",Taipei City,Xinyi District,"No.1,City Hall Rd.,Xinyi Dist.,Taipei City110,Taiwan,R.O.C."
TPEA000096,379110000G,臺北市政府,臺北市政府工務局,行政機關,臺北市政府大樓3F南區S302開標室門口,中華電信,,110,臺北市,信義區,110臺北市信義區市府路1號,25.036967,121.564517,Taipei City Government,"Poblic Works Department,Taipei City Government",Government Agency,"The  entrance of S302 Tender Opening Room in  South Wing on 3F,  Taipei City Hall",Taipei City,Xinyi District,"No.1,City Hall Rd.,Xinyi Dist.,Taipei City110,Taiwan,R.O.C."
TPEA000097,379140000I,臺北市政府,臺北市政府衛生局,行政機關,臺北市政府大樓3F東南區東側,中華電信,,110,臺北市,信義區,110臺北市信義區市府路1號,25.037176,121.564979,Taipei City Government,"Department of Health,Taipei City Government",Government Agency,"The east area in South-east Wing on 3F,  Taipei City Hall",Taipei City,Xinyi District,"No.1,City Hall Rd.,Xinyi Dist.,Taipei City110,Taiwan,R.O.C."
TPEA000098,379140000I,臺北市政府,臺北市政府衛生局,行政機關,臺北市政府大樓3F東南區西側,中華電信,,110,臺北市,信義區,110臺北市信義區市府路1號,25.037171,121.564751,Taipei City Government,"Department of Health,Taipei City Government",Government Agency,"The west area in  South-east Wing on 3F,  Taipei City Hall",Taipei City,Xinyi District,"No.1,City Hall Rd.,Xinyi Dist.,Taipei City110,Taiwan,R.O.C."
TPEA000099,379010000A,臺北市政府,臺北市政府秘書處,行政機關,臺北市政府大樓3F南電梯旁通道,中華電信,,110,臺北市,信義區,110臺北市信義區市府路1號,25.037193,121.564538,Taipei City Government,"Secretariat,Taipei City Government",Government Agency,"The hallway next to the southern elevator on 3F,  Taipei City Hall",Taipei City,Xinyi District,"No.1,City Hall Rd.,Xinyi Dist.,Taipei City110,Taiwan,R.O.C."
TPEA000100,379660000E,臺北市政府,臺北市政府觀光傳播局,行政機關,臺北市政府大樓3F中央南區辦公室,中華電信,,110,臺北市,信義區,110臺北市信義區市府路1號,25.037413,121.564309,Taipei City Government,"Department of Information and Tourism,Taipei City Government",Government Agency,"The office of south area in Central Area on 3F,  Taipei City Hall",Taipei City,Xinyi District,"No.1,City Hall Rd.,Xinyi Dist.,Taipei City110,Taiwan,R.O.C."
TPEA000101,379110000G,臺北市政府,臺北市政府工務局,行政機關,臺北市政府大樓3F西南區樓梯前,中華電信,,110,臺北市,信義區,110臺北市信義區市府路1號,25.037187,121.564284,Taipei City Government,"Poblic Works Department,Taipei City Government",Government Agency,"Front of the stairs in South-west Wing on 3F,  Taipei City Hall",Taipei City,Xinyi District,"No.1,City Hall Rd.,Xinyi Dist.,Taipei City110,Taiwan,R.O.C."
TPEA000102,379110000G,臺北市政府,臺北市政府工務局,行政機關,臺北市政府大樓3F西南區辦公室,中華電信,,110,臺北市,信義區,110臺北市信義區市府路1號,25.037216,121.564029,Taipei City Government,"Poblic Works Department,Taipei City Government",Government Agency,"The office in South-west Wing on 3F,  Taipei City Hall",Taipei City,Xinyi District,"No.1,City Hall Rd.,Xinyi Dist.,Taipei City110,Taiwan,R.O.C."
TPEA000103,379110000G,臺北市政府,臺北市政府工務局,行政機關,臺北市政府大樓3F南區西側辦公室北側門,中華電信,,110,臺北市,信義區,110臺北市信義區市府路1號,25.036997,121.564148,Taipei City Government,"Poblic Works Department,Taipei City Government",Government Agency,"The north office entrance of west area in South Wing on 3F,  Taipei City Hall",Taipei City,Xinyi District,"No.1,City Hall Rd.,Xinyi Dist.,Taipei City110,Taiwan,R.O.C."
TPEA000104,379110000G,臺北市政府,臺北市政府工務局,行政機關,臺北市政府大樓3F南區西側辦公室南側門,中華電信,,110,臺北市,信義區,110臺北市信義區市府路1號,25.036743,121.564154,Taipei City Government,"Poblic Works Department,Taipei City Government",Government Agency,"The south office entrance of west area in South Wing on 3F,  Taipei City Hall",Taipei City,Xinyi District,"No.1,City Hall Rd.,Xinyi Dist.,Taipei City110,Taiwan,R.O.C."
TPEA000105,379660000E,臺北市政府,臺北市政府觀光傳播局,藝文場館,臺北市政府大樓3F探索館城市探索廳,中華電信,,110,臺北市,信義區,110臺北市信義區市府路1號,25.037541,121.56403,Taipei City Government,"Department of Information and Tourism,Taipei City Government",Art and Culture Facilities,"City Discovery Hall, Discovery Center on 3F,  Taipei City Hall",Taipei City,Xinyi District,"No.1,City Hall Rd.,Xinyi Dist.,Taipei City110,Taiwan,R.O.C."
TPEA000106,379040000E,臺北市政府,臺北市政府教育局,行政機關,臺北市政府大樓4F北區北側,中華電信,,110,臺北市,信義區,110臺北市信義區市府路1號,25.038371,121.564521,Taipei City Government,"Department of Education,Taipei City Government",Government Agency,"The north area in North Wing on 4F,  Taipei City Hall",Taipei City,Xinyi District,"No.1,City Hall Rd.,Xinyi Dist.,Taipei City110,Taiwan,R.O.C."
TPEA000107,379040000E,臺北市政府,臺北市政府教育局,行政機關,臺北市政府大樓4F北區南側,中華電信,,110,臺北市,信義區,110臺北市信義區市府路1號,25.038073,121.564531,Taipei City Government,"Department of Education,Taipei City Government",Government Agency,"The south area in North Wing on 4F,  Taipei City Hall",Taipei City,Xinyi District,"No.1,City Hall Rd.,Xinyi Dist.,Taipei City110,Taiwan,R.O.C."
TPEA000108,379590000E,臺北市政府,臺北市政府文化局,行政機關,臺北市政府大樓4F東北區東側,中華電信,,110,臺北市,信義區,110臺北市信義區市府路1號,25.037824,121.564987,Taipei City Government,"Department of Cultural Affairs,Taipei City Government",Government Agency,"The east area in North-east Wing on 4F,  Taipei City Hall",Taipei City,Xinyi District,"No.1,City Hall Rd.,Xinyi Dist.,Taipei City110,Taiwan,R.O.C."
TPEA000109,379590000E,臺北市政府,臺北市政府文化局,行政機關,臺北市政府大樓4F東北區西側,中華電信,,110,臺北市,信義區,110臺北市信義區市府路1號,25.03783,121.56478,Taipei City Government,"Department of Cultural Affairs,Taipei City Government",Government Agency,"The west area in North-east Wing on 4F,  Taipei City Hall",Taipei City,Xinyi District,"No.1,City Hall Rd.,Xinyi Dist.,Taipei City110,Taiwan,R.O.C."
TPEA000110,379010000A,臺北市政府,臺北市政府秘書處,行政機關,臺北市政府大樓4F北電梯旁通道,中華電信,,110,臺北市,信義區,110臺北市信義區市府路1號,25.037819,121.564547,Taipei City Government,"Secretariat,Taipei City Government",Government Agency,"The hallway next to the northern elevator on 4F,  Taipei City Hall",Taipei City,Xinyi District,"No.1,City Hall Rd.,Xinyi Dist.,Taipei City110,Taiwan,R.O.C."
TPEA000111,379590000E,臺北市政府,臺北市政府文化局,行政機關,臺北市政府大樓4F西北區東側,中華電信,,110,臺北市,信義區,110臺北市信義區市府路1號,25.037842,121.564327,Taipei City Government,"Department of Cultural Affairs,Taipei City Government",Government Agency,"The east area in North-west Wing on 4F,  Taipei City Hall",Taipei City,Xinyi District,"No.1,City Hall Rd.,Xinyi Dist.,Taipei City110,Taiwan,R.O.C."
TPEA000112,379590000E,臺北市政府,臺北市政府文化局,行政機關,臺北市政府大樓4F西北區西側,中華電信,,110,臺北市,信義區,110臺北市信義區市府路1號,25.037842,121.564053,Taipei City Government,"Department of Cultural Affairs,Taipei City Government",Government Agency,"The west area in North-west Wing on 4F,  Taipei City Hall",Taipei City,Xinyi District,"No.1,City Hall Rd.,Xinyi Dist.,Taipei City110,Taiwan,R.O.C."
TPEA000113,379660000E,臺北市政府,臺北市政府觀光傳播局,行政機關,臺北市政府大樓4F中央區北側,中華電信,,110,臺北市,信義區,110臺北市信義區市府路1號,25.037651,121.564535,Taipei City Government,"Department of Information and Tourism,Taipei City Government",Government Agency,"The north area in Central Area on 4F,  Taipei City Hall",Taipei City,Xinyi District,"No.1,City Hall Rd.,Xinyi Dist.,Taipei City110,Taiwan,R.O.C."
TPEA000114,379560000G,臺北市政府,臺北市政府都市發展局,行政機關,臺北市政府大樓4F南區南側,中華電信,,110,臺北市,信義區,110臺北市信義區市府路1號,25.036668,121.564511,Taipei City Government,"Department of Urban Develpment,Taipei City Government",Government Agency,"The south area in South Wing on 4F,  Taipei City Hall",Taipei City,Xinyi District,"No.1,City Hall Rd.,Xinyi Dist.,Taipei City110,Taiwan,R.O.C."
TPEA000115,379560000G,臺北市政府,臺北市政府都市發展局,行政機關,臺北市政府大樓4F南區北側,中華電信,,110,臺北市,信義區,110臺北市信義區市府路1號,25.036932,121.564525,Taipei City Government,"Department of Urban Develpment,Taipei City Government",Government Agency,"The north area in South Wing on 4F,  Taipei City Hall",Taipei City,Xinyi District,"No.1,City Hall Rd.,Xinyi Dist.,Taipei City110,Taiwan,R.O.C."
TPEA000116,379110000G,臺北市政府,臺北市政府工務局,行政機關,臺北市政府大樓4F東南區東側,中華電信,,110,臺北市,信義區,110臺北市信義區市府路1號,25.037176,121.564979,Taipei City Government,"Poblic Works Department,Taipei City Government",Government Agency,"The east area in South-east Wing on 4F,  Taipei City Hall",Taipei City,Xinyi District,"No.1,City Hall Rd.,Xinyi Dist.,Taipei City110,Taiwan,R.O.C."
TPEA000117,379110000G,臺北市政府,臺北市政府工務局,行政機關,臺北市政府大樓4F東南區西側,中華電信,,110,臺北市,信義區,110臺北市信義區市府路1號,25.037171,121.564751,Taipei City Government,"Poblic Works Department,Taipei City Government",Government Agency,"The west area in South-east Wing on 4F,  Taipei City Hall",Taipei City,Xinyi District,"No.1,City Hall Rd.,Xinyi Dist.,Taipei City110,Taiwan,R.O.C."
TPEA000118,379010000A,臺北市政府,臺北市政府秘書處,行政機關,臺北市政府大樓4F南電梯旁通道,中華電信,,110,臺北市,信義區,110臺北市信義區市府路1號,25.037193,121.564538,Taipei City Government,"Secretariat,Taipei City Government",Government Agency,"The hallway next to the southern elevator on 4F,  Taipei City Hall",Taipei City,Xinyi District,"No.1,City Hall Rd.,Xinyi Dist.,Taipei City110,Taiwan,R.O.C."
TPEA000119,379110000G,臺北市政府,臺北市政府工務局,行政機關,臺北市政府大樓4F西南區東側,中華電信,,110,臺北市,信義區,110臺北市信義區市府路1號,25.037187,121.564284,Taipei City Government,"Poblic Works Department,Taipei City Government",Government Agency,"The east area in South-west Wing on 4F,  Taipei City Hall",Taipei City,Xinyi District,"No.1,City Hall Rd.,Xinyi Dist.,Taipei City110,Taiwan,R.O.C."
TPEA000120,379110000G,臺北市政府,臺北市政府工務局,行政機關,臺北市政府大樓4F西南區西側,中華電信,,110,臺北市,信義區,110臺北市信義區市府路1號,25.037216,121.564029,Taipei City Government,"Poblic Works Department,Taipei City Government",Government Agency,"The west area in South-west Wing on 4F,  Taipei City Hall",Taipei City,Xinyi District,"No.1,City Hall Rd.,Xinyi Dist.,Taipei City110,Taiwan,R.O.C."
TPEA000121,379660000E,臺北市政府,臺北市政府觀光傳播局,行政機關,臺北市政府大樓4F中央區南側,中華電信,,110,臺北市,信義區,110臺北市信義區市府路1號,25.03741,121.564551,Taipei City Government,"Department of Information and Tourism,Taipei City Government",Government Agency,"The south area in Central Area on 4F,  Taipei City Hall",Taipei City,Xinyi District,"No.1,City Hall Rd.,Xinyi Dist.,Taipei City110,Taiwan,R.O.C."
TPEA000122,379590700E,臺北市政府,臺北市藝文推廣處,藝文場館,臺北市政府大樓4F親子劇場南側,中華電信,,110,臺北市,信義區,110臺北市信義區市府路1號,25.037418,121.564737,Taipei City Government,"Department of Cultural Affairs,Taipei City Government",Art and Culture Facilities,"The south of Family Theater on 4F,  Taipei City Hall",Taipei City,Xinyi District,"No.1,City Hall Rd.,Xinyi Dist.,Taipei City110,Taiwan,R.O.C."
TPEA000123,379590700E,臺北市政府,臺北市藝文推廣處,藝文場館,臺北市政府大樓4F親子劇場北側,中華電信,,110,臺北市,信義區,110臺北市信義區市府路1號,25.037622,121.564728,Taipei City Government,"Department of Cultural Affairs,Taipei City Government",Art and Culture Facilities,"The north of Family Theater on 4F,  Taipei City Hall",Taipei City,Xinyi District,"No.1,City Hall Rd.,Xinyi Dist.,Taipei City110,Taiwan,R.O.C."
TPEA000124,379660000E,臺北市政府,臺北市政府觀光傳播局,藝文場館,臺北市政府大樓4F探索館時空對話廳,中華電信,,110,臺北市,信義區,110臺北市信義區市府路1號,25.037526,121.564105,Taipei City Government,"Department of Information and Tourism,Taipei City Government",Art and Culture Facilities,"The Dialogue with Time Hall in Discovery Center on 4F,  Taipei City Hall",Taipei City,Xinyi District,"No.1,City Hall Rd.,Xinyi Dist.,Taipei City110,Taiwan,R.O.C."
TPEA000125,379660000E,臺北市政府,臺北市政府觀光傳播局,藝文場館,臺北市政府大樓4F探索館發現劇場前辦公室,中華電信,,110,臺北市,信義區,110臺北市信義區市府路1號,25.037537,121.563866,Taipei City Government,"Department of Information and Tourism,Taipei City Government",Art and Culture Facilities,"The office in front of Discovery Theater in Discovery Center on 4F,  Taipei City Hall",Taipei City,Xinyi District,"No.1,City Hall Rd.,Xinyi Dist.,Taipei City110,Taiwan,R.O.C."
TPEA000126,379760000J,臺北市政府,臺北市政府勞動局,行政機關,臺北市政府大樓5F北區北側,中華電信,,110,臺北市,信義區,110臺北市信義區市府路1號,25.038371,121.564521,Taipei City Government,"Department of Labor,Taipei City Government",Government Agency,"The north area in North Wing on 5F,  Taipei City Hall",Taipei City,Xinyi District,"No.1,City Hall Rd.,Xinyi Dist.,Taipei City110,Taiwan,R.O.C."
TPEA000127,379760000J,臺北市政府,臺北市政府勞動局,行政機關,臺北市政府大樓5F北區南側,中華電信,,110,臺北市,信義區,110臺北市信義區市府路1號,25.038073,121.564531,Taipei City Government,"Department of Labor,Taipei City Government",Government Agency,"The south area in North Wing on 5F,  Taipei City Hall",Taipei City,Xinyi District,"No.1,City Hall Rd.,Xinyi Dist.,Taipei City110,Taiwan,R.O.C."
TPEA000128,379760000J,臺北市政府,臺北市政府勞動局,行政機關,臺北市政府大樓5F東北區東側,中華電信,,110,臺北市,信義區,110臺北市信義區市府路1號,25.037824,121.564987,Taipei City Government,"Department of Labor,Taipei City Government",Government Agency,"The east area in North-east Wing on 5F,  Taipei City Hall",Taipei City,Xinyi District,"No.1,City Hall Rd.,Xinyi Dist.,Taipei City110,Taiwan,R.O.C."
TPEA000129,379760000J,臺北市政府,臺北市政府勞動局,行政機關,臺北市政府大樓5F東北區西側,中華電信,,110,臺北市,信義區,110臺北市信義區市府路1號,25.03783,121.56478,Taipei City Government,"Department of Labor,Taipei City Government",Government Agency,"The west area in North-east Wing on 5F,  Taipei City Hall",Taipei City,Xinyi District,"No.1,City Hall Rd.,Xinyi Dist.,Taipei City110,Taiwan,R.O.C."
TPEA000130,379010000A,臺北市政府,臺北市政府秘書處,行政機關,臺北市政府大樓5F北電梯旁通道,中華電信,,110,臺北市,信義區,110臺北市信義區市府路1號,25.037819,121.564547,Taipei City Government,"Secretariat,Taipei City Government",Government Agency,"The hallway next to the northern elevator on 5F,  Taipei City Hall",Taipei City,Xinyi District,"No.1,City Hall Rd.,Xinyi Dist.,Taipei City110,Taiwan,R.O.C."
TPEA000131,379670000G,臺北市政府,臺北市政府產業發展局,行政機關,臺北市政府大樓5F西北區東側,中華電信,,110,臺北市,信義區,110臺北市信義區市府路1號,25.037842,121.564327,Taipei City Government,"Department of Economic Development,Taipei City Government",Government Agency,"The east area in North-west Wing on 5F,  Taipei City Hall",Taipei City,Xinyi District,"No.1,City Hall Rd.,Xinyi Dist.,Taipei City110,Taiwan,R.O.C."
TPEA000132,379670000G,臺北市政府,臺北市政府產業發展局,行政機關,臺北市政府大樓5F西北區西側,中華電信,,110,臺北市,信義區,110臺北市信義區市府路1號,25.037842,121.564053,Taipei City Government,"Department of Economic Development,Taipei City Government",Government Agency,"The west area in North-west Wing on 5F,  Taipei City Hall",Taipei City,Xinyi District,"No.1,City Hall Rd.,Xinyi Dist.,Taipei City110,Taiwan,R.O.C."
TPEA000133,379590700E,臺北市政府,臺北市藝文推廣處,藝文場館,臺北市政府大樓5F親子劇場,中華電信,,110,臺北市,信義區,110臺北市信義區市府路1號,25.037541,121.564737,Taipei City Government,"Department of Cultural Affairs,Taipei City Government",Art and Culture Facilities,"Family Theater on 5F,  Taipei City Hall",Taipei City,Xinyi District,"No.1,City Hall Rd.,Xinyi Dist.,Taipei City110,Taiwan,R.O.C."
TPEA000134,379200000A,臺北市政府,臺北市政府主計處,行政機關,臺北市政府大樓5F中央區北側,中華電信,,110,臺北市,信義區,110臺北市信義區市府路1號,25.037651,121.564535,Taipei City Government,"Department of Budget,Accounting and Statistics Taipei City Government",Government Agency,"The north area in Central Area on 5F,  Taipei City Hall",Taipei City,Xinyi District,"No.1,City Hall Rd.,Xinyi Dist.,Taipei City110,Taiwan,R.O.C."
TPEA000135,379200000A,臺北市政府,臺北市政府主計處,行政機關,臺北市政府大樓5F中央區南側,中華電信,,110,臺北市,信義區,110臺北市信義區市府路1號,25.03741,121.564551,Taipei City Government,"Department of Budget,Accounting and Statistics Taipei City Government",Government Agency,"The south area in Central Area on 5F,  Taipei City Hall",Taipei City,Xinyi District,"No.1,City Hall Rd.,Xinyi Dist.,Taipei City110,Taiwan,R.O.C."
TPEA000136,379110000G,臺北市政府,臺北市政府工務局,行政機關,臺北市政府大樓5F南區南側,中華電信,,110,臺北市,信義區,110臺北市信義區市府路1號,25.036668,121.564511,Taipei City Government,"Poblic Works Department,Taipei City Government",Government Agency,"The south area in South Wing on 5F,  Taipei City Hall",Taipei City,Xinyi District,"No.1,City Hall Rd.,Xinyi Dist.,Taipei City110,Taiwan,R.O.C."
TPEA000137,379110000G,臺北市政府,臺北市政府工務局,行政機關,臺北市政府大樓5F南區北側,中華電信,,110,臺北市,信義區,110臺北市信義區市府路1號,25.036932,121.564525,Taipei City Government,"Poblic Works Department,Taipei City Government",Government Agency,"The north area in South Wing on 5F,  Taipei City Hall",Taipei City,Xinyi District,"No.1,City Hall Rd.,Xinyi Dist.,Taipei City110,Taiwan,R.O.C."
TPEA000138,379110000G,臺北市政府,臺北市政府工務局,行政機關,臺北市政府大樓5F東南區,中華電信,,110,臺北市,信義區,110臺北市信義區市府路1號,25.037165,121.564884,Taipei City Government,"Poblic Works Department,Taipei City Government",Government Agency,"South-east Wing on 5F,  Taipei City Hall",Taipei City,Xinyi District,"No.1,City Hall Rd.,Xinyi Dist.,Taipei City110,Taiwan,R.O.C."
TPEA000139,379010000A,臺北市政府,臺北市政府秘書處,行政機關,臺北市政府大樓5F南電梯旁通道,中華電信,,110,臺北市,信義區,110臺北市信義區市府路1號,25.037193,121.564538,Taipei City Government,"Secretariat,Taipei City Government",Government Agency,"The hallway next to the southern elevator on 5F,  Taipei City Hall",Taipei City,Xinyi District,"No.1,City Hall Rd.,Xinyi Dist.,Taipei City110,Taiwan,R.O.C."
TPEA000140,379110000G,臺北市政府,臺北市政府工務局,行政機關,臺北市政府大樓5F西南區,中華電信,,110,臺北市,信義區,110臺北市信義區市府路1號,25.037198,121.564147,Taipei City Government,"Poblic Works Department,Taipei City Government",Government Agency,"South-west Wing on 5F,  Taipei City Hall",Taipei City,Xinyi District,"No.1,City Hall Rd.,Xinyi Dist.,Taipei City110,Taiwan,R.O.C."
TPEA000141,379720000A,臺北市政府,臺北市政府原住民族事務委員會,行政機關,臺北市政府大樓5F原住民族事務委員會南側,中華電信,,110,臺北市,信義區,110臺北市信義區市府路1號,25.037461,121.564141,Taipei City Government,"Indigenous Peoples Commission,Taipei City Government",Art and Culture Facilities,"The south side of the office in Discovery Center on 5F,  Taipei City Hall",Taipei City,Xinyi District,"No.1,City Hall Rd.,Xinyi Dist.,Taipei City110,Taiwan,R.O.C."
TPEA000142,379720000A,臺北市政府,臺北市政府原住民族事務委員會,行政機關,臺北市政府大樓5F原住民族事務委員會北側,中華電信,,110,臺北市,信義區,110臺北市信義區市府路1號,25.037612,121.564144,Taipei City Government,"Indigenous Peoples Commission,Taipei City Government",Art and Culture Facilities,"The north side of the office in Discovery Center on 5F,  Taipei City Hall",Taipei City,Xinyi District,"No.1,City Hall Rd.,Xinyi Dist.,Taipei City110,Taiwan,R.O.C."
TPEA000143,379530000H,臺北市政府,臺北市政府交通局,行政機關,臺北市政府大樓6F北區北側,中華電信,,110,臺北市,信義區,110臺北市信義區市府路1號,25.038371,121.564521,Taipei City Government,"Department of Transportation,Taipei City Government",Government Agency,"The north area in North Wing on 6F,  Taipei City Hall",Taipei City,Xinyi District,"No.1,City Hall Rd.,Xinyi Dist.,Taipei City110,Taiwan,R.O.C."
TPEA000144,379530000H,臺北市政府,臺北市政府交通局,行政機關,臺北市政府大樓6F北區南側,中華電信,,110,臺北市,信義區,110臺北市信義區市府路1號,25.038073,121.564531,Taipei City Government,"Department of Transportation,Taipei City Government",Government Agency,"The south area in North Wing on 6F,  Taipei City Hall",Taipei City,Xinyi District,"No.1,City Hall Rd.,Xinyi Dist.,Taipei City110,Taiwan,R.O.C."
TPEA000145,379150000I,臺北市政府,臺北市政府環境保護局,行政機關,臺北市政府大樓6F東北區東側,中華電信,,110,臺北市,信義區,110臺北市信義區市府路1號,25.037824,121.564987,Taipei City Government,"Department of Environmental Protection,Taipei City Government",Government Agency,"The east area in North-east Wing on 6F,  Taipei City Hall",Taipei City,Xinyi District,"No.1,City Hall Rd.,Xinyi Dist.,Taipei City110,Taiwan,R.O.C."
TPEA000146,379150000I,臺北市政府,臺北市政府環境保護局,行政機關,臺北市政府大樓6F東北區西側,中華電信,,110,臺北市,信義區,110臺北市信義區市府路1號,25.03783,121.56478,Taipei City Government,"Department of Environmental Protection,Taipei City Government",Government Agency,"The west area in North-east Wing on 6F,  Taipei City Hall",Taipei City,Xinyi District,"No.1,City Hall Rd.,Xinyi Dist.,Taipei City110,Taiwan,R.O.C."
TPEA000147,379010000A,臺北市政府,臺北市政府秘書處,行政機關,臺北市政府大樓6F北電梯旁通道,中華電信,,110,臺北市,信義區,110臺北市信義區市府路1號,25.037819,121.564547,Taipei City Government,"Secretariat,Taipei City Government",Government Agency,"The hallway next to the northern elevator on 6F,  Taipei City Hall",Taipei City,Xinyi District,"No.1,City Hall Rd.,Xinyi Dist.,Taipei City110,Taiwan,R.O.C."
TPEA000148,379530000H,臺北市政府,臺北市政府交通局,行政機關,臺北市政府大樓6F西北區東側,中華電信,,110,臺北市,信義區,110臺北市信義區市府路1號,25.037842,121.564327,Taipei City Government,"Department of Transportation,Taipei City Government",Government Agency,"The east area in North-west Wing on 6F,  Taipei City Hall",Taipei City,Xinyi District,"No.1,City Hall Rd.,Xinyi Dist.,Taipei City110,Taiwan,R.O.C."
TPEA000149,379530000H,臺北市政府,臺北市政府交通局,行政機關,臺北市政府大樓6F西北區西側,中華電信,,110,臺北市,信義區,110臺北市信義區市府路1號,25.037842,121.564053,Taipei City Government,"Department of Transportation,Taipei City Government",Government Agency,"The west area in North-west Wing on 6F,  Taipei City Hall",Taipei City,Xinyi District,"No.1,City Hall Rd.,Xinyi Dist.,Taipei City110,Taiwan,R.O.C."
TPEA000150,379200000A,臺北市政府,臺北市政府主計處,行政機關,臺北市政府大樓6F中央區北側,中華電信,,110,臺北市,信義區,110臺北市信義區市府路1號,25.037651,121.564535,Taipei City Government,"Department of Budget,Accounting and Statistics Taipei City Government",Government Agency,"The north area in Central Area on 6F,  Taipei City Hall",Taipei City,Xinyi District,"No.1,City Hall Rd.,Xinyi Dist.,Taipei City110,Taiwan,R.O.C."
TPEA000151,379200000A,臺北市政府,臺北市政府主計處,行政機關,臺北市政府大樓6F中央區南側,中華電信,,110,臺北市,信義區,110臺北市信義區市府路1號,25.03741,121.564551,Taipei City Government,"Department of Budget,Accounting and Statistics Taipei City Government",Government Agency,"The south area in Central Area on 6F,  Taipei City Hall",Taipei City,Xinyi District,"No.1,City Hall Rd.,Xinyi Dist.,Taipei City110,Taiwan,R.O.C."
TPEA000152,379110000G,臺北市政府,臺北市政府工務局,行政機關,臺北市政府大樓6F南區南側,中華電信,,110,臺北市,信義區,110臺北市信義區市府路1號,25.036668,121.564511,Taipei City Government,"Poblic Works Department,Taipei City Government",Government Agency,"The south area in South Wing on 6F,  Taipei City Hall",Taipei City,Xinyi District,"No.1,City Hall Rd.,Xinyi Dist.,Taipei City110,Taiwan,R.O.C."
TPEA000153,379110000G,臺北市政府,臺北市政府工務局,行政機關,臺北市政府大樓6F南區北側,中華電信,,110,臺北市,信義區,110臺北市信義區市府路1號,25.036932,121.564525,Taipei City Government,"Poblic Works Department,Taipei City Government",Government Agency,"The north area in South Wing on 6F,  Taipei City Hall",Taipei City,Xinyi District,"No.1,City Hall Rd.,Xinyi Dist.,Taipei City110,Taiwan,R.O.C."
TPEA000154,379120000J,臺北市政府,臺北市政府社會局,行政機關,臺北市政府大樓6F東南區東側,中華電信,,110,臺北市,信義區,110臺北市信義區市府路1號,25.037176,121.564979,Taipei City Government,"Department of Social Welfare,Taipei City Government",Government Agency,"The east area in South-east Wing on 6F,  Taipei City Hall",Taipei City,Xinyi District,"No.1,City Hall Rd.,Xinyi Dist.,Taipei City110,Taiwan,R.O.C."
TPEA000155,379120000J,臺北市政府,臺北市政府社會局,行政機關,臺北市政府大樓6F東南區西側,中華電信,,110,臺北市,信義區,110臺北市信義區市府路1號,25.037171,121.564751,Taipei City Government,"Department of Social Welfare,Taipei City Government",Government Agency,"The west area in South-east Wing on 6F,  Taipei City Hall",Taipei City,Xinyi District,"No.1,City Hall Rd.,Xinyi Dist.,Taipei City110,Taiwan,R.O.C."
TPEA000156,379010000A,臺北市政府,臺北市政府秘書處,行政機關,臺北市政府大樓6F南電梯旁通道,中華電信,,110,臺北市,信義區,110臺北市信義區市府路1號,25.037193,121.564538,Taipei City Government,"Secretariat,Taipei City Government",Government Agency,"The hallway next to the southern elevator on 6F,  Taipei City Hall",Taipei City,Xinyi District,"No.1,City Hall Rd.,Xinyi Dist.,Taipei City110,Taiwan,R.O.C."
TPEA000157,379110000G,臺北市政府,臺北市政府工務局,行政機關,臺北市政府大樓6F西南區,中華電信,,110,臺北市,信義區,110臺北市信義區市府路1號,25.037198,121.564147,Taipei City Government,"Poblic Works Department,Taipei City Government",Government Agency,"South-west Wing on 6F,  Taipei City Hall",Taipei City,Xinyi District,"No.1,City Hall Rd.,Xinyi Dist.,Taipei City110,Taiwan,R.O.C."
TPEA000158,379150000I,臺北市政府,臺北市政府環境保護局,行政機關,臺北市政府大樓7F北區中央,中華電信,,110,臺北市,信義區,110臺北市信義區市府路1號,25.038371,121.564521,Taipei City Government,"Department of Environmental Protection,Taipei City Government",Government Agency,"The north area in North Wing on 7F,  Taipei City Hall",Taipei City,Xinyi District,"No.1,City Hall Rd.,Xinyi Dist.,Taipei City110,Taiwan,R.O.C."
TPEA000159,379150000I,臺北市政府,臺北市政府環境保護局,行政機關,臺北市政府大樓7F北區南側,中華電信,,110,臺北市,信義區,110臺北市信義區市府路1號,25.038073,121.564531,Taipei City Government,"Department of Environmental Protection,Taipei City Government",Government Agency,"The south area in North Wing on 7F,  Taipei City Hall",Taipei City,Xinyi District,"No.1,City Hall Rd.,Xinyi Dist.,Taipei City110,Taiwan,R.O.C."
TPEA000160,379150000I,臺北市政府,臺北市政府環境保護局,行政機關,臺北市政府大樓7F東北區東側,中華電信,,110,臺北市,信義區,110臺北市信義區市府路1號,25.037824,121.564987,Taipei City Government,"Department of Environmental Protection,Taipei City Government",Government Agency,"The east area in North-east Wing on 7F,  Taipei City Hall",Taipei City,Xinyi District,"No.1,City Hall Rd.,Xinyi Dist.,Taipei City110,Taiwan,R.O.C."
TPEA000161,379150000I,臺北市政府,臺北市政府環境保護局,行政機關,臺北市政府大樓7F東北區西側,中華電信,,110,臺北市,信義區,110臺北市信義區市府路1號,25.03783,121.56478,Taipei City Government,"Department of Environmental Protection,Taipei City Government",Government Agency,"The west area in North-east Wing on 7F,  Taipei City Hall",Taipei City,Xinyi District,"No.1,City Hall Rd.,Xinyi Dist.,Taipei City110,Taiwan,R.O.C."
TPEA000162,379010000A,臺北市政府,臺北市政府秘書處,行政機關,臺北市政府大樓7F北電梯旁通道,中華電信,,110,臺北市,信義區,110臺北市信義區市府路1號,25.037819,121.564547,Taipei City Government,"Secretariat,Taipei City Government",Government Agency,"The hallway next to the northern elevator on 7F,  Taipei City Hall",Taipei City,Xinyi District,"No.1,City Hall Rd.,Xinyi Dist.,Taipei City110,Taiwan,R.O.C."
TPEA000163,379150000I,臺北市政府,臺北市政府環境保護局,行政機關,臺北市政府大樓7F西北區東側,中華電信,,110,臺北市,信義區,110臺北市信義區市府路1號,25.037842,121.564327,Taipei City Government,"Department of Environmental Protection,Taipei City Government",Government Agency,"The east area in North-west Wing on 7F,  Taipei City Hall",Taipei City,Xinyi District,"No.1,City Hall Rd.,Xinyi Dist.,Taipei City110,Taiwan,R.O.C."
TPEA000164,379150000I,臺北市政府,臺北市政府環境保護局,行政機關,臺北市政府大樓7F西北區西側,中華電信,,110,臺北市,信義區,110臺北市信義區市府路1號,25.037842,121.564053,Taipei City Government,"Department of Environmental Protection,Taipei City Government",Government Agency,"The west area in North-west Wing on 7F,  Taipei City Hall",Taipei City,Xinyi District,"No.1,City Hall Rd.,Xinyi Dist.,Taipei City110,Taiwan,R.O.C."
TPEA000165,379030000D,臺北市政府,臺北市政府財政局,行政機關,臺北市政府大樓7F中央區北側,中華電信,,110,臺北市,信義區,110臺北市信義區市府路1號,25.037651,121.564535,Taipei City Government,"Department of Finance,Taipei City Government",Government Agency,"The north area in Central Area on 7F,  Taipei City Hall",Taipei City,Xinyi District,"No.1,City Hall Rd.,Xinyi Dist.,Taipei City110,Taiwan,R.O.C."
TPEA000166,379030000D,臺北市政府,臺北市政府財政局,行政機關,臺北市政府大樓7F中央區南側,中華電信,,110,臺北市,信義區,110臺北市信義區市府路1號,25.03741,121.564551,Taipei City Government,"Department of Finance,Taipei City Government",Government Agency,"The south area in Central Area on 7F,  Taipei City Hall",Taipei City,Xinyi District,"No.1,City Hall Rd.,Xinyi Dist.,Taipei City110,Taiwan,R.O.C."
TPEA000167,379110000G,臺北市政府,臺北市政府工務局,行政機關,臺北市政府大樓7F南區南側,中華電信,,110,臺北市,信義區,110臺北市信義區市府路1號,25.036668,121.564511,Taipei City Government,"Poblic Works Department,Taipei City Government",Government Agency,"The south area in South Wing on 7F,  Taipei City Hall",Taipei City,Xinyi District,"No.1,City Hall Rd.,Xinyi Dist.,Taipei City110,Taiwan,R.O.C."
TPEA000168,379110000G,臺北市政府,臺北市政府工務局,行政機關,臺北市政府大樓7F南區北側,中華電信,,110,臺北市,信義區,110臺北市信義區市府路1號,25.036932,121.564525,Taipei City Government,"Poblic Works Department,Taipei City Government",Government Agency,"The north area in South Wing on 7F,  Taipei City Hall",Taipei City,Xinyi District,"No.1,City Hall Rd.,Xinyi Dist.,Taipei City110,Taiwan,R.O.C."
TPEA000169,379110000G,臺北市政府,臺北市政府工務局,行政機關,臺北市政府大樓7F東南區,中華電信,,110,臺北市,信義區,110臺北市信義區市府路1號,25.037171,121.564823,Taipei City Government,"Poblic Works Department,Taipei City Government",Government Agency,"South-east Wing on 7F,  Taipei City Hall",Taipei City,Xinyi District,"No.1,City Hall Rd.,Xinyi Dist.,Taipei City110,Taiwan,R.O.C."
TPEA000170,379010000A,臺北市政府,臺北市政府秘書處,行政機關,臺北市政府大樓7F南電梯旁通道,中華電信,,110,臺北市,信義區,110臺北市信義區市府路1號,25.037193,121.564538,Taipei City Government,"Secretariat,Taipei City Government",Government Agency,"The hallway next to the southern elevator on 7F,  Taipei City Hall",Taipei City,Xinyi District,"No.1,City Hall Rd.,Xinyi Dist.,Taipei City110,Taiwan,R.O.C."
TPEA000171,379110000G,臺北市政府,臺北市政府工務局,行政機關,臺北市政府大樓7F西南區東側,中華電信,,110,臺北市,信義區,110臺北市信義區市府路1號,25.037187,121.564284,Taipei City Government,"Poblic Works Department,Taipei City Government",Government Agency,"The east side of South-west Wing on 7F,  Taipei City Hall",Taipei City,Xinyi District,"No.1,City Hall Rd.,Xinyi Dist.,Taipei City110,Taiwan,R.O.C."
TPEA000172,379110000G,臺北市政府,臺北市政府工務局,行政機關,臺北市政府大樓7F西南區西側,中華電信,,110,臺北市,信義區,110臺北市信義區市府路1號,25.037216,121.564029,Taipei City Government,"Poblic Works Department,Taipei City Government",Government Agency,"The west side of South-west Wing on 7F,  Taipei City Hall",Taipei City,Xinyi District,"No.1,City Hall Rd.,Xinyi Dist.,Taipei City110,Taiwan,R.O.C."
TPEA000173,379040000E,臺北市政府,臺北市政府教育局,行政機關,臺北市政府大樓8F北區北側,中華電信,,110,臺北市,信義區,110臺北市信義區市府路1號,25.038386,121.564549,Taipei City Government,"Department of Education,Taipei City Government",Government Agency,"The north area in North Wing on 8F,  Taipei City Hall",Taipei City,Xinyi District,"No.1,City Hall Rd.,Xinyi Dist.,Taipei City110,Taiwan,R.O.C."
TPEA000174,379040000E,臺北市政府,臺北市政府教育局,行政機關,臺北市政府大樓8F北區南側,中華電信,,110,臺北市,信義區,110臺北市信義區市府路1號,25.038138,121.564554,Taipei City Government,"Department of Education,Taipei City Government",Government Agency,"The south area in North Wing on 8F,  Taipei City Hall",Taipei City,Xinyi District,"No.1,City Hall Rd.,Xinyi Dist.,Taipei City110,Taiwan,R.O.C."
TPEA000175,379750000A,臺北市政府,臺北市政府法務局,行政機關,臺北市政府大樓8F東北區東側,中華電信,,110,臺北市,信義區,110臺北市信義區市府路1號,25.037801,121.564957,Taipei City Government,"Department of Legal Affairs,Taipei City Government",Government Agency,"The east area in North-east Wing on 8F,  Taipei City Hall",Taipei City,Xinyi District,"No.1,City Hall Rd.,Xinyi Dist.,Taipei City110,Taiwan,R.O.C."
TPEA000176,379750000A,臺北市政府,臺北市政府法務局,行政機關,臺北市政府大樓8F東北區西側,中華電信,,110,臺北市,信義區,110臺北市信義區市府路1號,25.037818,121.564747,Taipei City Government,"Department of Legal Affairs,Taipei City Government",Government Agency,"The west area in North-east Wing on 8F,  Taipei City Hall",Taipei City,Xinyi District,"No.1,City Hall Rd.,Xinyi Dist.,Taipei City110,Taiwan,R.O.C."
TPEA000177,379010000A,臺北市政府,臺北市政府秘書處,行政機關,臺北市政府大樓8F北電梯旁通道,中華電信,,110,臺北市,信義區,110臺北市信義區市府路1號,25.03781,121.564549,Taipei City Government,"Secretariat,Taipei City Government",Government Agency,"The hallway next to the northern elevator on 8F,  Taipei City Hall",Taipei City,Xinyi District,"No.1,City Hall Rd.,Xinyi Dist.,Taipei City110,Taiwan,R.O.C."
TPEA000178,379040000E,臺北市政府,臺北市政府教育局,行政機關,臺北市政府大樓8F西北區,中華電信,,110,臺北市,信義區,110臺北市信義區市府路1號,25.037847,121.564085,Taipei City Government,"Department of Education,Taipei City Government",Government Agency,"North-west Wing on 8F,  Taipei City Hall",Taipei City,Xinyi District,"No.1,City Hall Rd.,Xinyi Dist.,Taipei City110,Taiwan,R.O.C."
TPEA000179,379030000D,臺北市政府,臺北市政府財政局,行政機關,臺北市政府大樓8F中央區北側,中華電信,,110,臺北市,信義區,110臺北市信義區市府路1號,25.037653,121.564499,Taipei City Government,"Department of Finance,Taipei City Government",Government Agency,"The north area in Central Area on 8F,  Taipei City Hall",Taipei City,Xinyi District,"No.1,City Hall Rd.,Xinyi Dist.,Taipei City110,Taiwan,R.O.C."
TPEA000180,379030000D,臺北市政府,臺北市政府財政局,行政機關,臺北市政府大樓8F中央區南側,中華電信,,110,臺北市,信義區,110臺北市信義區市府路1號,25.037408,121.564515,Taipei City Government,"Department of Finance,Taipei City Government",Government Agency,"The south area in Central Area on 8F,  Taipei City Hall",Taipei City,Xinyi District,"No.1,City Hall Rd.,Xinyi Dist.,Taipei City110,Taiwan,R.O.C."
TPEA000181,379110000G,臺北市政府,臺北市政府工務局,行政機關,臺北市政府大樓8F南區南側,中華電信,,110,臺北市,信義區,110臺北市信義區市府路1號,25.0367,121.56452,Taipei City Government,"Poblic Works Department,Taipei City Government",Government Agency,"The south area in South Wing on 8F,  Taipei City Hall",Taipei City,Xinyi District,"No.1,City Hall Rd.,Xinyi Dist.,Taipei City110,Taiwan,R.O.C."
TPEA000182,379110000G,臺北市政府,臺北市政府工務局,行政機關,臺北市政府大樓8F南區北側,中華電信,,110,臺北市,信義區,110臺北市信義區市府路1號,25.036945,121.564544,Taipei City Government,"Poblic Works Department,Taipei City Government",Government Agency,"The north area in South Wing on 8F,  Taipei City Hall",Taipei City,Xinyi District,"No.1,City Hall Rd.,Xinyi Dist.,Taipei City110,Taiwan,R.O.C."
TPEA000183,379110000G,臺北市政府,臺北市政府工務局,行政機關,臺北市政府大樓8F東南區東側,中華電信,,110,臺北市,信義區,110臺北市信義區市府路1號,25.037176,121.564979,Taipei City Government,"Poblic Works Department,Taipei City Government",Government Agency,"The east area in South-east Wing on 8F,  Taipei City Hall",Taipei City,Xinyi District,"No.1,City Hall Rd.,Xinyi Dist.,Taipei City110,Taiwan,R.O.C."
TPEA000184,379110000G,臺北市政府,臺北市政府工務局,行政機關,臺北市政府大樓8F東南區西側,中華電信,,110,臺北市,信義區,110臺北市信義區市府路1號,25.037171,121.564751,Taipei City Government,"Poblic Works Department,Taipei City Government",Government Agency,"The west area in South-east Wing on 8F,  Taipei City Hall",Taipei City,Xinyi District,"No.1,City Hall Rd.,Xinyi Dist.,Taipei City110,Taiwan,R.O.C."
TPEA000185,379010000A,臺北市政府,臺北市政府秘書處,行政機關,臺北市政府大樓8F南電梯旁通道,中華電信,,110,臺北市,信義區,110臺北市信義區市府路1號,25.0372,121.564558,Taipei City Government,"Secretariat,Taipei City Government",Government Agency,"The hallway next to the southern elevator on 8F,  Taipei City Hall",Taipei City,Xinyi District,"No.1,City Hall Rd.,Xinyi Dist.,Taipei City110,Taiwan,R.O.C."
TPEA000186,379120000J,臺北市政府,臺北市政府社會局,行政機關,臺北市政府大樓8F西南區,中華電信,,110,臺北市,信義區,110臺北市信義區市府路1號,25.037198,121.564147,Taipei City Government,"Department of Social Welfare,Taipei City Government",Government Agency,"South-west Wing on 8F,  Taipei City Hall",Taipei City,Xinyi District,"No.1,City Hall Rd.,Xinyi Dist.,Taipei City110,Taiwan,R.O.C."
TPEA000187,379020000A,臺北市政府,臺北市政府民政局,行政機關,臺北市政府大樓9F北區北側,中華電信,,110,臺北市,信義區,110臺北市信義區市府路1號,25.038233,121.564523,Taipei City Government,"Department of Civil Affairs,Taipei City Government",Government Agency,"The north area in North Wing on 9F,  Taipei City Hall",Taipei City,Xinyi District,"No.1,City Hall Rd.,Xinyi Dist.,Taipei City110,Taiwan,R.O.C."
TPEA000188,379020000A,臺北市政府,臺北市政府民政局,行政機關,臺北市政府大樓9F北區南側,中華電信,,110,臺北市,信義區,110臺北市信義區市府路1號,25.037974,121.564526,Taipei City Government,"Department of Civil Affairs,Taipei City Government",Government Agency,"The south area in North Wing on 9F,  Taipei City Hall",Taipei City,Xinyi District,"No.1,City Hall Rd.,Xinyi Dist.,Taipei City110,Taiwan,R.O.C."
TPEA000189,379750000A,臺北市政府,臺北市政府法務局,行政機關,臺北市政府大樓9F東北區東側,中華電信,,110,臺北市,信義區,110臺北市信義區市府路1號,25.037817,121.564997,Taipei City Government,"Department of Legal Affairs,Taipei City Government",Government Agency,"The east area in North-east Wing on 9F,  Taipei City Hall",Taipei City,Xinyi District,"No.1,City Hall Rd.,Xinyi Dist.,Taipei City110,Taiwan,R.O.C."
TPEA000190,379750000A,臺北市政府,臺北市政府法務局,行政機關,臺北市政府大樓9F東北區西側,中華電信,,110,臺北市,信義區,110臺北市信義區市府路1號,25.037822,121.564803,Taipei City Government,"Department of Legal Affairs,Taipei City Government",Government Agency,"The west area in North-east Wing on 9F,  Taipei City Hall",Taipei City,Xinyi District,"No.1,City Hall Rd.,Xinyi Dist.,Taipei City110,Taiwan,R.O.C."
TPEA000191,379010000A,臺北市政府,臺北市政府秘書處,行政機關,臺北市政府大樓9F北電梯旁通道,中華電信,,110,臺北市,信義區,110臺北市信義區市府路1號,25.037848,121.564516,Taipei City Government,"Secretariat,Taipei City Government",Government Agency,"The hallway next to the northern elevator on 9F,  Taipei City Hall",Taipei City,Xinyi District,"No.1,City Hall Rd.,Xinyi Dist.,Taipei City110,Taiwan,R.O.C."
TPEA000192,379040000E,臺北市政府,臺北市政府教育局,行政機關,臺北市政府大樓9F西北區東側,中華電信,,110,臺北市,信義區,110臺北市信義區市府路1號,25.03788,121.564347,Taipei City Government,"Department of Education,Taipei City Government",Government Agency,"The east area in North-west Wing on 9F,  Taipei City Hall",Taipei City,Xinyi District,"No.1,City Hall Rd.,Xinyi Dist.,Taipei City110,Taiwan,R.O.C."
TPEA000193,379040000E,臺北市政府,臺北市政府教育局,行政機關,臺北市政府大樓9F西北區西側,中華電信,,110,臺北市,信義區,110臺北市信義區市府路1號,25.037886,121.564117,Taipei City Government,"Department of Education,Taipei City Government",Government Agency,"The west area in North-west Wing on 9F,  Taipei City Hall",Taipei City,Xinyi District,"No.1,City Hall Rd.,Xinyi Dist.,Taipei City110,Taiwan,R.O.C."
TPEA000194,379020000A,臺北市政府,臺北市政府民政局,行政機關,臺北市政府大樓9F中央區中央走道北側,中華電信,,110,臺北市,信義區,110臺北市信義區市府路1號,25.037684,121.564557,Taipei City Government,"Department of Civil Affairs,Taipei City Government",Government Agency,"The northern hallway in Central Area on 9F,  Taipei City Hall",Taipei City,Xinyi District,"No.1,City Hall Rd.,Xinyi Dist.,Taipei City110,Taiwan,R.O.C."
TPEA000195,379020000A,臺北市政府,臺北市政府民政局,行政機關,臺北市政府大樓9F中央區東側靠窗,中華電信,,110,臺北市,信義區,110臺北市信義區市府路1號,25.037435,121.564548,Taipei City Government,"Department of Civil Affairs,Taipei City Government",Government Agency,"The eastern window side in Central Area on 9F,  Taipei City Hall",Taipei City,Xinyi District,"No.1,City Hall Rd.,Xinyi Dist.,Taipei City110,Taiwan,R.O.C."
TPEA000196,379560000G,臺北市政府,臺北市政府都市發展局,行政機關,臺北市政府大樓9F南區南側,中華電信,,110,臺北市,信義區,110臺北市信義區市府路1號,25.036702,121.564507,Taipei City Government,"Department of Urban Develpment,Taipei City Government",Government Agency,"The south area in South Wing on 9F,  Taipei City Hall",Taipei City,Xinyi District,"No.1,City Hall Rd.,Xinyi Dist.,Taipei City110,Taiwan,R.O.C."
TPEA000197,379560000G,臺北市政府,臺北市政府都市發展局,行政機關,臺北市政府大樓9F南區北側,中華電信,,110,臺北市,信義區,110臺北市信義區市府路1號,25.036944,121.564511,Taipei City Government,"Department of Urban Develpment,Taipei City Government",Government Agency,"The north area in South Wing on 9F,  Taipei City Hall",Taipei City,Xinyi District,"No.1,City Hall Rd.,Xinyi Dist.,Taipei City110,Taiwan,R.O.C."
TPEA000198,379560000G,臺北市政府,臺北市政府都市發展局,行政機關,臺北市政府大樓9F東南區東側,中華電信,,110,臺北市,信義區,110臺北市信義區市府路1號,25.037172,121.564961,Taipei City Government,"Department of Urban Develpment,Taipei City Government",Government Agency,"The east area in South-east Wing on 9F,  Taipei City Hall",Taipei City,Xinyi District,"No.1,City Hall Rd.,Xinyi Dist.,Taipei City110,Taiwan,R.O.C."
TPEA000199,379560000G,臺北市政府,臺北市政府都市發展局,行政機關,臺北市政府大樓9F東南區西側,中華電信,,110,臺北市,信義區,110臺北市信義區市府路1號,25.037176,121.564753,Taipei City Government,"Department of Urban Develpment,Taipei City Government",Government Agency,"The west area in South-east Wing on 9F,  Taipei City Hall",Taipei City,Xinyi District,"No.1,City Hall Rd.,Xinyi Dist.,Taipei City110,Taiwan,R.O.C."
TPEA000200,379010000A,臺北市政府,臺北市政府秘書處,行政機關,臺北市政府大樓9F南電梯旁通道,中華電信,,110,臺北市,信義區,110臺北市信義區市府路1號,25.037213,121.564519,Taipei City Government,"Secretariat,Taipei City Government",Government Agency,"The hallway next to the southern elevator on 9F,  Taipei City Hall",Taipei City,Xinyi District,"No.1,City Hall Rd.,Xinyi Dist.,Taipei City110,Taiwan,R.O.C."
TPEA000201,379560000G,臺北市政府,臺北市政府都市發展局,行政機關,臺北市政府大樓9F西南區中央走道東側,中華電信,,110,臺北市,信義區,110臺北市信義區市府路1號,25.03717,121.56431,Taipei City Government,"Department of Urban Develpment,Taipei City Government",Government Agency,"The eastern hallway in South-west Wing on 9F,  Taipei City Hall",Taipei City,Xinyi District,"No.1,City Hall Rd.,Xinyi Dist.,Taipei City110,Taiwan,R.O.C."
TPEA000202,379560000G,臺北市政府,臺北市政府都市發展局,行政機關,臺北市政府大樓9F西南區北側隔間,中華電信,,110,臺北市,信義區,110臺北市信義區市府路1號,25.037262,121.564144,Taipei City Government,"Department of Urban Develpment,Taipei City Government",Government Agency,"The partition of north area in South-west Wing on 9F,  Taipei City Hall",Taipei City,Xinyi District,"No.1,City Hall Rd.,Xinyi Dist.,Taipei City110,Taiwan,R.O.C."
TPEA000203,379560000G,臺北市政府,臺北市政府都市發展局,行政機關,臺北市政府大樓9F西南區中央走道西側,中華電信,,110,臺北市,信義區,110臺北市信義區市府路1號,25.037219,121.563984,Taipei City Government,"Department of Urban Develpment,Taipei City Government",Government Agency,"The western hallway in South-west Wing on 9F,  Taipei City Hall",Taipei City,Xinyi District,"No.1,City Hall Rd.,Xinyi Dist.,Taipei City110,Taiwan,R.O.C."
TPEA000204,379020000A,臺北市政府,臺北市政府民政局,行政機關,臺北市政府大樓9F中央區中央走道南側,中華電信,,110,臺北市,信義區,110臺北市信義區市府路1號,25.037427,121.564444,Taipei City Government,"Department of Civil Affairs,Taipei City Government",Government Agency,"The southern hallway in South-west Wing on 9F,  Taipei City Hall",Taipei City,Xinyi District,"No.1,City Hall Rd.,Xinyi Dist.,Taipei City110,Taiwan,R.O.C."
TPEA000205,379140000I,臺北市政府,臺北市政府衛生局,行政機關,臺北市政府大樓10F北區北側,中華電信,,110,臺北市,信義區,110臺北市信義區市府路1號,25.038299,121.564529,Taipei City Government,"Department of Health,Taipei City Government",Government Agency,"The north area in North Wing on 10F,  Taipei City Hall",Taipei City,Xinyi District,"No.1,City Hall Rd.,Xinyi Dist.,Taipei City110,Taiwan,R.O.C."
TPEA000206,379140000I,臺北市政府,臺北市政府衛生局,行政機關,臺北市政府大樓10F北區南側,中華電信,,110,臺北市,信義區,110臺北市信義區市府路1號,25.03793,121.564502,Taipei City Government,"Department of Health,Taipei City Government",Government Agency,"The south area in North Wing on 10F,  Taipei City Hall",Taipei City,Xinyi District,"No.1,City Hall Rd.,Xinyi Dist.,Taipei City110,Taiwan,R.O.C."
TPEA000207,379120000J,臺北市政府,臺北市政府社會局,行政機關,臺北市政府大樓10F東北區西側,中華電信,,110,臺北市,信義區,110臺北市信義區市府路1號,25.037831,121.564888,Taipei City Government,"Department of Social Welfare,Taipei City Government",Government Agency,"North-east Wing on 10F,  Taipei City Hall",Taipei City,Xinyi District,"No.1,City Hall Rd.,Xinyi Dist.,Taipei City110,Taiwan,R.O.C."
TPEA000208,379010000A,臺北市政府,臺北市政府秘書處,行政機關,臺北市政府大樓10F北電梯旁通道,中華電信,,110,臺北市,信義區,110臺北市信義區市府路1號,25.037819,121.564542,Taipei City Government,"Secretariat,Taipei City Government",Government Agency,"The hallway next to the northern elevator on 10F,  Taipei City Hall",Taipei City,Xinyi District,"No.1,City Hall Rd.,Xinyi Dist.,Taipei City110,Taiwan,R.O.C."
TPEA000209,379010000A,臺北市政府,臺北市政府秘書處,行政機關,臺北市政府大樓10F西北區東側,中華電信,,110,臺北市,信義區,110臺北市信義區市府路1號,25.037871,121.564139,Taipei City Government,"Secretariat,Taipei City Government",Government Agency,"North-west Wing on 10F,  Taipei City Hall",Taipei City,Xinyi District,"No.1,City Hall Rd.,Xinyi Dist.,Taipei City110,Taiwan,R.O.C."
TPEA000210,379730000A,臺北市政府,臺北市政府資訊局,行政機關,臺北市政府大樓10F中央區東北側隔間,中華電信,,110,臺北市,信義區,110臺北市信義區市府路1號,25.037633,121.564585,Taipei City Government,"Department of Information Technology,Taipei City Government",Government Agency,"The partition of northeast area in Central Area on 10F,  Taipei City Hall",Taipei City,Xinyi District,"No.1,City Hall Rd.,Xinyi Dist.,Taipei City110,Taiwan,R.O.C."
TPEA000212,379730000A,臺北市政府,臺北市政府資訊局,行政機關,臺北市政府大樓10F中央區中央走道北側,中華電信,,110,臺北市,信義區,110臺北市信義區市府路1號,25.037445,121.564455,Taipei City Government,"Department of Information Technology,Taipei City Government",Government Agency,"The south side of hallway in Central Area on 10F,  Taipei City Hall",Taipei City,Xinyi District,"No.1,City Hall Rd.,Xinyi Dist.,Taipei City110,Taiwan,R.O.C."
TPEA000213,379730000A,臺北市政府,臺北市政府資訊局,行政機關,臺北市政府大樓10F南區,中華電信,,110,臺北市,信義區,110臺北市信義區市府路1號,25.036841,121.564524,Taipei City Government,"Department of Information Technology,Taipei City Government",Government Agency,"South Wing on 10F,  Taipei City Hall",Taipei City,Xinyi District,"No.1,City Hall Rd.,Xinyi Dist.,Taipei City110,Taiwan,R.O.C."
TPEA000214,379730000A,臺北市政府,臺北市政府資訊局,行政機關,臺北市政府大樓10F東南區西側,中華電信,,110,臺北市,信義區,110臺北市信義區市府路1號,25.037184,121.564798,Taipei City Government,"Department of Information Technology,Taipei City Government",Government Agency,"South-east Wing on 10F,  Taipei City Hall",Taipei City,Xinyi District,"No.1,City Hall Rd.,Xinyi Dist.,Taipei City110,Taiwan,R.O.C."
TPEA000215,379010000A,臺北市政府,臺北市政府秘書處,行政機關,臺北市政府大樓10F南電梯旁通道,中華電信,,110,臺北市,信義區,110臺北市信義區市府路1號,25.037186,121.564542,Taipei City Government,"Secretariat,Taipei City Government",Government Agency,"The hallway next to the southern elevator on 10F,  Taipei City Hall",Taipei City,Xinyi District,"No.1,City Hall Rd.,Xinyi Dist.,Taipei City110,Taiwan,R.O.C."
TPEA000216,379110000G,臺北市政府,臺北市政府工務局,行政機關,臺北市政府大樓10F西南區東側,中華電信,,110,臺北市,信義區,110臺北市信義區市府路1號,25.037191,121.564329,Taipei City Government,"Poblic Works Department,Taipei City Government",Government Agency,"The east area in South-west Wing on 10F,  Taipei City Hall",Taipei City,Xinyi District,"No.1,City Hall Rd.,Xinyi Dist.,Taipei City110,Taiwan,R.O.C."
TPEA000217,379140000I,臺北市政府,臺北市政府衛生局,行政機關,臺北市政府大樓10F西南區西側,中華電信,,110,臺北市,信義區,110臺北市信義區市府路1號,25.03721,121.564032,Taipei City Government,"Department of Health,Taipei City Government",Government Agency,"The west area in South-west Wing on 10F,  Taipei City Hall",Taipei City,Xinyi District,"No.1,City Hall Rd.,Xinyi Dist.,Taipei City110,Taiwan,R.O.C."
TPEA000218,379010000A,臺北市政府,臺北市政府秘書處,行政機關,臺北市政府大樓11F北區東北側,中華電信,,110,臺北市,信義區,110臺北市信義區市府路1號,25.03843,121.564519,Taipei City Government,"Secretariat,Taipei City Government",Government Agency,"The northern hallway in North Wing on 11F,  Taipei City Hall",Taipei City,Xinyi District,"No.1,City Hall Rd.,Xinyi Dist.,Taipei City110,Taiwan,R.O.C."
TPEA000219,379010000A,臺北市政府,臺北市政府秘書處,行政機關,臺北市政府大樓11F北區中央,中華電信,,110,臺北市,信義區,110臺北市信義區市府路1號,25.038267,121.564565,Taipei City Government,"Secretariat,Taipei City Government",Government Agency,"The central of hallway in North Wing on 11F,  Taipei City Hall",Taipei City,Xinyi District,"No.1,City Hall Rd.,Xinyi Dist.,Taipei City110,Taiwan,R.O.C."
TPEA000220,379010000A,臺北市政府,臺北市政府秘書處,行政機關,臺北市政府大樓11F北區東南側,中華電信,,110,臺北市,信義區,110臺北市信義區市府路1號,25.038112,121.564483,Taipei City Government,"Secretariat,Taipei City Government",Government Agency,"The south of hallway in North Wing on 11F,  Taipei City Hall",Taipei City,Xinyi District,"No.1,City Hall Rd.,Xinyi Dist.,Taipei City110,Taiwan,R.O.C."
TPEA000221,379010000A,臺北市政府,臺北市政府秘書處,行政機關,臺北市政府大樓11F東北區東側,中華電信,,110,臺北市,信義區,110臺北市信義區市府路1號,25.037836,121.565012,Taipei City Government,"Secretariat,Taipei City Government",Government Agency,"The east area in North-east Wing on 11F,  Taipei City Hall",Taipei City,Xinyi District,"No.1,City Hall Rd.,Xinyi Dist.,Taipei City110,Taiwan,R.O.C."
TPEA000222,379010000A,臺北市政府,臺北市政府秘書處,行政機關,臺北市政府大樓11F東北區西側,中華電信,,110,臺北市,信義區,110臺北市信義區市府路1號,25.03785,121.564795,Taipei City Government,"Secretariat,Taipei City Government",Government Agency,"The west area in North-east Wing on 11F,  Taipei City Hall",Taipei City,Xinyi District,"No.1,City Hall Rd.,Xinyi Dist.,Taipei City110,Taiwan,R.O.C."
TPEA000223,379010000A,臺北市政府,臺北市政府秘書處,行政機關,臺北市政府大樓11F北電梯旁通道,中華電信,,110,臺北市,信義區,110臺北市信義區市府路1號,25.037809,121.564552,Taipei City Government,"Secretariat,Taipei City Government",Government Agency,"The hallway next to the northern elevator on 11F,  Taipei City Hall",Taipei City,Xinyi District,"No.1,City Hall Rd.,Xinyi Dist.,Taipei City110,Taiwan,R.O.C."
TPEA000224,379010000A,臺北市政府,臺北市政府秘書處,行政機關,臺北市政府大樓11F西北區東北側,中華電信,,110,臺北市,信義區,110臺北市信義區市府路1號,25.037943,121.564299,Taipei City Government,"Secretariat,Taipei City Government",Government Agency,"The central of hallway in North-west Wing on 11F,  Taipei City Hall",Taipei City,Xinyi District,"No.1,City Hall Rd.,Xinyi Dist.,Taipei City110,Taiwan,R.O.C."
TPEA000225,379010000A,臺北市政府,臺北市政府秘書處,行政機關,臺北市政府大樓11F西北區西北側,中華電信,,110,臺北市,信義區,110臺北市信義區市府路1號,25.037877,121.564105,Taipei City Government,"Secretariat,Taipei City Government",Government Agency,"The west area in North-west Wing on 11F,  Taipei City Hall",Taipei City,Xinyi District,"No.1,City Hall Rd.,Xinyi Dist.,Taipei City110,Taiwan,R.O.C."
TPEA000226,379010000A,臺北市政府,臺北市政府秘書處,行政機關,臺北市政府大樓11F中央區走道北側,中華電信,,110,臺北市,信義區,110臺北市信義區市府路1號,25.037669,121.564516,Taipei City Government,"Secretariat,Taipei City Government",Government Agency,"The north side of hallway in Central Area on 11F,  Taipei City Hall",Taipei City,Xinyi District,"No.1,City Hall Rd.,Xinyi Dist.,Taipei City110,Taiwan,R.O.C."
TPEA000227,379210000A,臺北市政府,臺北市政府人事處,行政機關,臺北市政府大樓11F南區南側,中華電信,,110,臺北市,信義區,110臺北市信義區市府路1號,25.036696,121.56447,Taipei City Government,"Department of Personnel,Taipei City Government",Government Agency,"The south area in South Wing on 11F,  Taipei City Hall",Taipei City,Xinyi District,"No.1,City Hall Rd.,Xinyi Dist.,Taipei City110,Taiwan,R.O.C."
TPEA000228,379210000A,臺北市政府,臺北市政府人事處,行政機關,臺北市政府大樓11F南區北側,中華電信,,110,臺北市,信義區,110臺北市信義區市府路1號,25.036991,121.56448,Taipei City Government,"Department of Personnel,Taipei City Government",Government Agency,"The north area in South Wing on 11F,  Taipei City Hall",Taipei City,Xinyi District,"No.1,City Hall Rd.,Xinyi Dist.,Taipei City110,Taiwan,R.O.C."
TPEA000229,379220000A,臺北市政府,臺北市政府研究發展考核委員會,行政機關,臺北市政府大樓11F東南區東側,中華電信,,110,臺北市,信義區,110臺北市信義區市府路1號,25.037208,121.564982,Taipei City Government,"Research,Development and Evaluation Commission,Taipei City Government",Government Agency,"The east area in South-east Wing on 11F,  Taipei City Hall",Taipei City,Xinyi District,"No.1,City Hall Rd.,Xinyi Dist.,Taipei City110,Taiwan,R.O.C."
TPEA000230,379220000A,臺北市政府,臺北市政府研究發展考核委員會,行政機關,臺北市政府大樓11F東南區西側,中華電信,,110,臺北市,信義區,110臺北市信義區市府路1號,25.037199,121.564772,Taipei City Government,"Research,Development and Evaluation Commission,Taipei City Government",Government Agency,"The west area in South-east Wing on 11F,  Taipei City Hall",Taipei City,Xinyi District,"No.1,City Hall Rd.,Xinyi Dist.,Taipei City110,Taiwan,R.O.C."
TPEA000231,379010000A,臺北市政府,臺北市政府秘書處,行政機關,臺北市政府大樓11F南電梯旁通道,中華電信,,110,臺北市,信義區,110臺北市信義區市府路1號,25.037217,121.564522,Taipei City Government,"Secretariat,Taipei City Government",Government Agency,"The hallway next to the southern elevator on 11F,  Taipei City Hall",Taipei City,Xinyi District,"No.1,City Hall Rd.,Xinyi Dist.,Taipei City110,Taiwan,R.O.C."
TPEA000232,379540000A,臺北市政府,臺北市政府政風處,行政機關,臺北市政府大樓11F西南區東側,中華電信,,110,臺北市,信義區,110臺北市信義區市府路1號,25.037199,121.564329,Taipei City Government,"Department of Government Ethics,Taipei City Government",Government Agency,"The east area in South-west Wing on 11F,  Taipei City Hall",Taipei City,Xinyi District,"No.1,City Hall Rd.,Xinyi Dist.,Taipei City110,Taiwan,R.O.C."
TPEA000233,379540000A,臺北市政府,臺北市政府政風處,行政機關,臺北市政府大樓11F西南區西側,中華電信,,110,臺北市,信義區,110臺北市信義區市府路1號,25.037205,121.564043,Taipei City Government,"Department of Government Ethics,Taipei City Government",Government Agency,"The west area in South-west Wing on 11F,  Taipei City Hall",Taipei City,Xinyi District,"No.1,City Hall Rd.,Xinyi Dist.,Taipei City110,Taiwan,R.O.C."
TPEA000234,379010000A,臺北市政府,臺北市政府秘書處,行政機關,臺北市政府大樓11F第一準備室,中華電信,,110,臺北市,信義區,110臺北市信義區市府路1號,25.037422,121.564539,Taipei City Government,"Secretariat,Taipei City Government",Government Agency,"First Preparation Room on 11F,  Taipei City Hall",Taipei City,Xinyi District,"No.1,City Hall Rd.,Xinyi Dist.,Taipei City110,Taiwan,R.O.C."
TPEA000235,379010000A,臺北市政府,臺北市政府秘書處,行政機關,臺北市政府大樓11F吳三連廳,中華電信,,110,臺北市,信義區,110臺北市信義區市府路1號,25.037568,121.564611,Taipei City Government,"Secretariat,Taipei City Government",Government Agency,"Wu Sanlian Hall on 11F,  Taipei City Hall",Taipei City,Xinyi District,"No.1,City Hall Rd.,Xinyi Dist.,Taipei City110,Taiwan,R.O.C."
TPEA000236,379010000A,臺北市政府,臺北市政府秘書處,行政機關,臺北市政府大樓11F市長室,中華電信,,110,臺北市,信義區,110臺北市信義區市府路1號,25.037502,121.564457,Taipei City Government,"Secretariat,Taipei City Government",Government Agency,"Mayor Office on 11F,  Taipei City Hall",Taipei City,Xinyi District,"No.1,City Hall Rd.,Xinyi Dist.,Taipei City110,Taiwan,R.O.C."
TPEA000237,379010000A,臺北市政府,臺北市政府秘書處,行政機關,臺北市政府大樓12F北區,中華電信,,110,臺北市,信義區,110臺北市信義區市府路1號,25.038218,121.564509,Taipei City Government,"Secretariat,Taipei City Government",Government Agency,"North Wing on 12F,  Taipei City Hall",Taipei City,Xinyi District,"No.1,City Hall Rd.,Xinyi Dist.,Taipei City110,Taiwan,R.O.C."
TPEA000238,379010000A,臺北市政府,臺北市政府秘書處,行政機關,臺北市政府大樓12F北電梯旁通道,中華電信,,110,臺北市,信義區,110臺北市信義區市府路1號,25.037812,121.564528,Taipei City Government,"Secretariat,Taipei City Government",Government Agency,"The hallway next to the northern elevator on 12F,  Taipei City Hall",Taipei City,Xinyi District,"No.1,City Hall Rd.,Xinyi Dist.,Taipei City110,Taiwan,R.O.C."
TPEA000239,379220000A,臺北市政府,臺北市政府研究發展考核委員會,行政機關,臺北市政府大樓12F南區,中華電信,,110,臺北市,信義區,110臺北市信義區市府路1號,25.036949,121.564454,Taipei City Government,"Research,Development and Evaluation Commission,Taipei City Government",Government Agency,"South Wing on 12F,  Taipei City Hall",Taipei City,Xinyi District,"No.1,City Hall Rd.,Xinyi Dist.,Taipei City110,Taiwan,R.O.C."
TPEA000240,379010000A,臺北市政府,臺北市政府秘書處,行政機關,臺北市政府大樓12F南電梯旁通道,中華電信,,110,臺北市,信義區,110臺北市信義區市府路1號,25.03718,121.564467,Taipei City Government,"Secretariat,Taipei City Government",Government Agency,"The hallway next to the southern elevator on 12F,  Taipei City Hall",Taipei City,Xinyi District,"No.1,City Hall Rd.,Xinyi Dist.,Taipei City110,Taiwan,R.O.C."
TPEA000241,379010000A,臺北市政府,臺北市政府秘書處,行政機關,臺北市政府大樓12F中央區東南側靠窗,中華電信,,110,臺北市,信義區,110臺北市信義區市府路1號,25.037442,121.564568,Taipei City Government,"Secretariat,Taipei City Government",Government Agency,"The southeast of window side in Central Area on 12F,  Taipei City Hall",Taipei City,Xinyi District,"No.1,City Hall Rd.,Xinyi Dist.,Taipei City110,Taiwan,R.O.C."
TPEA000242,379010000A,臺北市政府,臺北市政府秘書處,行政機關,臺北市政府大樓12F中央區西北側靠窗,中華電信,,110,臺北市,信義區,110臺北市信義區市府路1號,25.037664,121.564327,Taipei City Government,"Secretariat,Taipei City Government",Government Agency,"The northwest of window side in Central Area on 12F,  Taipei City Hall",Taipei City,Xinyi District,"No.1,City Hall Rd.,Xinyi Dist.,Taipei City110,Taiwan,R.O.C."
TPEA000243,379670100G,臺北市政府,臺北市市場處,商圈市集,龍山寺地下街商場B1F商場01前,中華電信,,108,臺北市,萬華區,108臺北市萬華區西園路一段145號,25.036421,121.499751,Taipei City Government,"Department of Economic Development,Taipei City Government",Commercial District and Market,"In front of the first store on B1F, Lungshan Temple Underground Shopping Mall",Taipei City,Wanhua District,"No.145,Sec.1,Xiyuan Rd.,Wanhua Dist.,Taipei City108,Taiwan,R.O.C"
TPEA000244,379670100G,臺北市政府,臺北市市場處,商圈市集,龍山寺地下街商場B1F商場03前,中華電信,,108,臺北市,萬華區,108臺北市萬華區西園路一段145號,25.036421,121.500081,Taipei City Government,"Department of Economic Development,Taipei City Government",Commercial District and Market,"In front of the third store on B1F, Lungshan Temple Underground Shopping Mall",Taipei City,Wanhua District,"No.145,Sec.1,Xiyuan Rd.,Wanhua Dist.,Taipei City108,Taiwan,R.O.C"
TPEA000245,379670100G,臺北市政府,臺北市市場處,商圈市集,龍山寺地下街商場B1F商場10前,中華電信,,108,臺北市,萬華區,108臺北市萬華區西園路一段145號,25.036251,121.499751,Taipei City Government,"Department of Economic Development,Taipei City Government",Commercial District and Market,"In front of the tenth store on B1F, Lungshan Temple Underground Shopping Mall",Taipei City,Wanhua District,"No.145,Sec.1,Xiyuan Rd.,Wanhua Dist.,Taipei City108,Taiwan,R.O.C"
TPEA000246,379670100G,臺北市政府,臺北市市場處,商圈市集,龍山寺地下街商場B1F商場13前,中華電信,,108,臺北市,萬華區,108臺北市萬華區西園路一段145號,25.036251,121.500081,Taipei City Government,"Department of Economic Development,Taipei City Government",Commercial District and Market,"In front of the thirteenth store on B1F, Lungshan Temple Underground Shopping Mall",Taipei City,Wanhua District,"No.145,Sec.1,Xiyuan Rd.,Wanhua Dist.,Taipei City108,Taiwan,R.O.C"
TPEA000247,379670100G,臺北市政府,臺北市市場處,商圈市集,龍山寺地下街商場B1F商場15前,中華電信,,108,臺北市,萬華區,108臺北市萬華區西園路一段145號,25.036084,121.500135,Taipei City Government,"Department of Economic Development,Taipei City Government",Commercial District and Market,"In front of the fifteenth store on B1F, Lungshan Temple Underground Shopping Mall",Taipei City,Wanhua District,"No.145,Sec.1,Xiyuan Rd.,Wanhua Dist.,Taipei City108,Taiwan,R.O.C"
TPEA000248,379670100G,臺北市政府,臺北市市場處,商圈市集,龍山寺地下街商場B1F商場19前,中華電信,,108,臺北市,萬華區,108臺北市萬華區西園路一段145號,25.03577,121.500151,Taipei City Government,"Department of Economic Development,Taipei City Government",Commercial District and Market,"In front of the nineteenth store on B1F, Lungshan Temple Underground Shopping Mall",Taipei City,Wanhua District,"No.145,Sec.1,Xiyuan Rd.,Wanhua Dist.,Taipei City108,Taiwan,R.O.C"
TPEA000249,379670100G,臺北市政府,臺北市市場處,商圈市集,龍山寺地下街商場B2F廣場A,中華電信,,108,臺北市,萬華區,108臺北市萬華區西園路一段145號,25.036373,121.499665,Taipei City Government,"Department of Economic Development,Taipei City Government",Commercial District and Market,"Plaza A  on B2F, Lungshan Temple Underground Shopping Mall",Taipei City,Wanhua District,"No.145,Sec.1,Xiyuan Rd.,Wanhua Dist.,Taipei City108,Taiwan,R.O.C"
TPEA000250,379670100G,臺北市政府,臺北市市場處,商圈市集,龍山寺地下街商場B2F廣場B,中華電信,,108,臺北市,萬華區,108臺北市萬華區西園路一段145號,25.036327,121.500255,Taipei City Government,"Department of Economic Development,Taipei City Government",Commercial District and Market,"Plaza B  on B2F, Lungshan Temple Underground Shopping Mall",Taipei City,Wanhua District,"No.145,Sec.1,Xiyuan Rd.,Wanhua Dist.,Taipei City108,Taiwan,R.O.C"
TPEA000251,379670100G,臺北市政府,臺北市市場處,商圈市集,龍山寺地下街商場B2F商場46前,中華電信,,108,臺北市,萬華區,108臺北市萬華區西園路一段145號,25.035714,121.500194,Taipei City Government,"Department of Economic Development,Taipei City Government",Commercial District and Market,"In front of the forty-sixth store on B2F, Lungshan Temple Underground Shopping Mall",Taipei City,Wanhua District,"No.145,Sec.1,Xiyuan Rd.,Wanhua Dist.,Taipei City108,Taiwan,R.O.C"
TPEA000344,379140200P,臺北市政府,臺北市立聯合醫院中興院區,醫院,北市聯醫中興院區8F816病房門口,中華電信,,103,臺北市,大同區,103臺北市大同區鄭州路145號,25.051702,121.509016,Taipei City Government,"Taipei City Hospital, Zhongxing Branch",Hospital,"The entrance of816 ward on 8F, Taipei City Hospital, Zhongxing Branch",Taipei City,Datong District,"No.145,Zhengzhou Rd.,Datong Dist.,Taipei City103,Taiwan,R.O.C."
TPEA000345,379140200P,臺北市政府,臺北市立聯合醫院中興院區,醫院,北市聯醫中興院區8F807病房門口,中華電信,,103,臺北市,大同區,103臺北市大同區鄭州路145號,25.051626,121.508837,Taipei City Government,"Taipei City Hospital, Zhongxing Branch",Hospital,"The entrance of807 ward on 8F, Taipei City Hospital, Zhongxing Branch",Taipei City,Datong District,"No.145,Zhengzhou Rd.,Datong Dist.,Taipei City103,Taiwan,R.O.C."
TPEA000360,379140200P,臺北市政府,臺北市立聯合醫院中興院區,醫院,北市聯醫中興院區10F1045病房門口,中華電信,,103,臺北市,大同區,103臺北市大同區鄭州路145號,25.051577,121.509573,Taipei City Government,"Taipei City Hospital, Zhongxing Branch",Hospital,"The entrance of1045 ward on 10F, Taipei City Hospital, Zhongxing Branch",Taipei City,Datong District,"No.145,Zhengzhou Rd.,Datong Dist.,Taipei City103,Taiwan,R.O.C."
TPEA000361,379140200P,臺北市政府,臺北市立聯合醫院中興院區,醫院,北市聯醫中興院區10F1032病房門口,中華電信,,103,臺北市,大同區,103臺北市大同區鄭州路145號,25.05173,121.509452,Taipei City Government,"Taipei City Hospital, Zhongxing Branch",Hospital,"The entrance of1032 ward on 10F, Taipei City Hospital, Zhongxing Branch",Taipei City,Datong District,"No.145,Zhengzhou Rd.,Datong Dist.,Taipei City103,Taiwan,R.O.C."
TPEA000373,379530400H,臺北市政府,臺北市交通管制工程處,行政機關,松德大樓7F秘書室門口右側,中華電信,,110,臺北市,信義區,110臺北市信義區松德路300號7F,25.032061,121.574059,Taipei City Government,Taipei City Traffic Engineering Office,Government Agency,"The entrance of Administrative Services Office,Sunde Office Building",Taipei City,Xinyi District,"No.300,Songde Rd.,Xinyi Dist.,Taipei City110,Taiwan,R.O.C."
TPEA000414,379140100P,臺北市政府,臺北市立聯合醫院仁愛院區,醫院,北市聯醫仁愛院區南棟1F中醫第一診門口東側,中華電信,,106,臺北市,大安區,106臺北市大安區仁愛路四段10號,25.0370272,121.5456219,Taipei City Government,"Taipei City Hospital, Renai Branch",Hospital,"The east side of 
First diagnosis of Chinese medicine in South Building on 1F, Taipei City Hospital, Renai Branch",Taipei City,Da’an District,"No.10,Sec.4,Ren_ai Rd.,Da’an Dist.,Taipei City106,Taiwan,R.O.C."
TPEA000415,379140100P,臺北市政府,臺北市立聯合醫院仁愛院區,醫院,北市聯醫仁愛院區南棟1F牙醫門診櫃台,中華電信,,106,臺北市,大安區,106臺北市大安區仁愛路四段10號,25.0367451,121.5453134,Taipei City Government,"Taipei City Hospital, Renai Branch",Hospital,"The counter of Dentist clinic in South Building on 1F, Taipei City Hospital, Renai Branch",Taipei City,Da’an District,"No.10,Sec.4,Ren_ai Rd.,Da’an Dist.,Taipei City106,Taiwan,R.O.C."
TPEA000416,379140100P,臺北市政府,臺北市立聯合醫院仁愛院區,醫院,北市聯醫仁愛院區南棟2F腹膜透析治療室(二)走廊,中華電信,,106,臺北市,大安區,106臺北市大安區仁愛路四段10號,25.0370169,121.5456311,Taipei City Government,"Taipei City Hospital, Renai Branch",Hospital,"The hallwayof Peritoneal dialysis treatment room(2) in South Building on 2F, Taipei City Hospital, Renai Branch",Taipei City,Da’an District,"No.10,Sec.4,Ren_ai Rd.,Da’an Dist.,Taipei City106,Taiwan,R.O.C."
TPEA000417,379140100P,臺北市政府,臺北市立聯合醫院仁愛院區,醫院,北市聯醫仁愛院區南棟3F護理站左側走廊,中華電信,,106,臺北市,大安區,106臺北市大安區仁愛路四段10號,25.0369589,121.5454835,Taipei City Government,"Taipei City Hospital, Renai Branch",Hospital,"The left side of the hallway in Nursing station in South Building on 3F, Taipei City Hospital, Renai Branch",Taipei City,Da’an District,"No.10,Sec.4,Ren_ai Rd.,Da’an Dist.,Taipei City106,Taiwan,R.O.C."
TPEA000418,379140100P,臺北市政府,臺北市立聯合醫院仁愛院區,醫院,北市聯醫仁愛院區南棟3F護理站內左側通道,中華電信,,106,臺北市,大安區,106臺北市大安區仁愛路四段10號,25.0368503,121.5454706,Taipei City Government,"Taipei City Hospital, Renai Branch",Hospital,"The Nursing station in South Building on 3F, Taipei City Hospital, Renai Branch",Taipei City,Da’an District,"No.10,Sec.4,Ren_ai Rd.,Da’an Dist.,Taipei City106,Taiwan,R.O.C."
TPEA000419,379140100P,臺北市政府,臺北市立聯合醫院仁愛院區,醫院,北市聯醫仁愛院區南棟5F物理治療區大門口,中華電信,,106,臺北市,大安區,106臺北市大安區仁愛路四段10號,25.0369498,121.5455054,Taipei City Government,"Taipei City Hospital, Renai Branch",Hospital,"The entrance of Physical therapy area in South Building on 5F, Taipei City Hospital, Renai Branch",Taipei City,Da’an District,"No.10,Sec.4,Ren_ai Rd.,Da’an Dist.,Taipei City106,Taiwan,R.O.C."
TPEA000420,379140100P,臺北市政府,臺北市立聯合醫院仁愛院區,醫院,北市聯醫仁愛院區南棟7F電腦檢索區,中華電信,,106,臺北市,大安區,106臺北市大安區仁愛路四段10號,25.036918,121.5455208,Taipei City Government,"Taipei City Hospital, Renai Branch",Hospital,"The Information Retrieval Area  in South Building on 7F, Taipei City Hospital, Renai Branch",Taipei City,Da’an District,"No.10,Sec.4,Ren_ai Rd.,Da’an Dist.,Taipei City106,Taiwan,R.O.C."
TPEA000421,379140100P,臺北市政府,臺北市立聯合醫院仁愛院區,醫院,北市聯醫仁愛院區檢驗大樓B1F管制區門口,中華電信,,106,臺北市,大安區,106臺北市大安區仁愛路四段10號,25.0375166,121.5457803,Taipei City Government,"Taipei City Hospital, Renai Branch",Hospital,"The entrance of Control area in Laboratory Building on B1F, Taipei City Hospital, Renai Branch",Taipei City,Da’an District,"No.10,Sec.4,Ren_ai Rd.,Da’an Dist.,Taipei City106,Taiwan,R.O.C."
TPEA000422,379140100P,臺北市政府,臺北市立聯合醫院仁愛院區,醫院,北市聯醫仁愛院區檢驗大樓1F螢幕前方,中華電信,,106,臺北市,大安區,106臺北市大安區仁愛路四段10號,25.0377034,121.5455281,Taipei City Government,"Taipei City Hospital, Renai Branch",Hospital,"Front of the screen in Laboratory Building on 1F, Taipei City Hospital, Renai Branch",Taipei City,Da’an District,"No.10,Sec.4,Ren_ai Rd.,Da’an Dist.,Taipei City106,Taiwan,R.O.C."
TPEA000423,379140100P,臺北市政府,臺北市立聯合醫院仁愛院區,醫院,北市聯醫仁愛院區檢驗大樓1F核醫科櫃台,中華電信,,106,臺北市,大安區,106臺北市大安區仁愛路四段10號,25.0374388,121.5457239,Taipei City Government,"Taipei City Hospital, Renai Branch",Hospital,"The counter of Nuclear medicine in Laboratory Building on 1F, Taipei City Hospital, Renai Branch",Taipei City,Da’an District,"No.10,Sec.4,Ren_ai Rd.,Da’an Dist.,Taipei City106,Taiwan,R.O.C."
TPEA000424,379140100P,臺北市政府,臺北市立聯合醫院仁愛院區,醫院,北市聯醫仁愛院區檢驗大樓2F3號檢查室門口,中華電信,,106,臺北市,大安區,106臺北市大安區仁愛路四段10號,25.0376839,121.5458012,Taipei City Government,"Taipei City Hospital, Renai Branch",Hospital,"The entrance of NO.3 check room in Laboratory Building on 2F, Taipei City Hospital, Renai Branch",Taipei City,Da’an District,"No.10,Sec.4,Ren_ai Rd.,Da’an Dist.,Taipei City106,Taiwan,R.O.C."
TPEA000425,379140100P,臺北市政府,臺北市立聯合醫院仁愛院區,醫院,北市聯醫仁愛院區檢驗大樓2F7號檢查室門口,中華電信,,106,臺北市,大安區,106臺北市大安區仁愛路四段10號,25.0373809,121.5457849,Taipei City Government,"Taipei City Hospital, Renai Branch",Hospital,"The entrance of NO.7 check room in Laboratory Building on 2F, Taipei City Hospital, Renai Branch",Taipei City,Da’an District,"No.10,Sec.4,Ren_ai Rd.,Da’an Dist.,Taipei City106,Taiwan,R.O.C."
TPEA000426,379140100P,臺北市政府,臺北市立聯合醫院仁愛院區,醫院,北市聯醫仁愛院區檢驗大樓5F茶水間旁壁櫃,中華電信,,106,臺北市,大安區,106臺北市大安區仁愛路四段10號,25.0373531,121.5459209,Taipei City Government,"Taipei City Hospital, Renai Branch",Hospital,"The Wall cabinetnext to the Pantry in Laboratory Building on 5F, Taipei City Hospital, Renai Branch",Taipei City,Da’an District,"No.10,Sec.4,Ren_ai Rd.,Da’an Dist.,Taipei City106,Taiwan,R.O.C."
TPEA000427,379140100P,臺北市政府,臺北市立聯合醫院仁愛院區,醫院,北市聯醫仁愛院區檢驗大樓3F女性健康中心門口,中華電信,,106,臺北市,大安區,106臺北市大安區仁愛路四段10號,25.0376325,121.5458428,Taipei City Government,"Taipei City Hospital, Renai Branch",Hospital,"The entrance of Women's health center in Laboratory Building on 3F, Taipei City Hospital, Renai Branch",Taipei City,Da’an District,"No.10,Sec.4,Ren_ai Rd.,Da’an Dist.,Taipei City106,Taiwan,R.O.C."
TPEA000428,379140100P,臺北市政府,臺北市立聯合醫院仁愛院區,醫院,北市聯醫仁愛院區檢驗大樓3F控制室門口右方,中華電信,,106,臺北市,大安區,106臺北市大安區仁愛路四段10號,25.0374407,121.5458527,Taipei City Government,"Taipei City Hospital, Renai Branch",Hospital,"The entrance of the right side in Control room in Laboratory Building on 3F, Taipei City Hospital, Renai Branch",Taipei City,Da’an District,"No.10,Sec.4,Ren_ai Rd.,Da’an Dist.,Taipei City106,Taiwan,R.O.C."
TPEA000429,379140100P,臺北市政府,臺北市立聯合醫院仁愛院區,醫院,北市聯醫仁愛院區檢驗大樓4F茶水間旁壁櫃,中華電信,,106,臺北市,大安區,106臺北市大安區仁愛路四段10號,25.0373728,121.5460137,Taipei City Government,"Taipei City Hospital, Renai Branch",Hospital,"The Wall cabinetnext to the Pantry in Laboratory Building on 4F, Taipei City Hospital, Renai Branch",Taipei City,Da’an District,"No.10,Sec.4,Ren_ai Rd.,Da’an Dist.,Taipei City106,Taiwan,R.O.C."
TPEA000430,379140100P,臺北市政府,臺北市立聯合醫院仁愛院區,醫院,北市聯醫仁愛院區檢驗大樓6F第二會議室門口,中華電信,,106,臺北市,大安區,106臺北市大安區仁愛路四段10號,25.0375414,121.5458227,Taipei City Government,"Taipei City Hospital, Renai Branch",Hospital,"The entrance of Second meeting room in Laboratory Building on 6F, Taipei City Hospital, Renai Branch",Taipei City,Da’an District,"No.10,Sec.4,Ren_ai Rd.,Da’an Dist.,Taipei City106,Taiwan,R.O.C."
TPEA000431,379140100P,臺北市政府,臺北市立聯合醫院仁愛院區,醫院,北市聯醫仁愛院區檢驗大樓6F管理室門口,中華電信,,106,臺北市,大安區,106臺北市大安區仁愛路四段10號,25.0374563,121.5458571,Taipei City Government,"Taipei City Hospital, Renai Branch",Hospital,"The entrance of Management room in Laboratory Building on 6F, Taipei City Hospital, Renai Branch",Taipei City,Da’an District,"No.10,Sec.4,Ren_ai Rd.,Da’an Dist.,Taipei City106,Taiwan,R.O.C."
TPEA000432,379140100P,臺北市政府,臺北市立聯合醫院仁愛院區,醫院,北市聯醫仁愛院區檢驗大樓6F座椅中央,中華電信,,106,臺北市,大安區,106臺北市大安區仁愛路四段10號,25.0374227,121.5458477,Taipei City Government,"Taipei City Hospital, Renai Branch",Hospital,"The central of seating area in Laboratory Building on 6F, Taipei City Hospital, Renai Branch",Taipei City,Da’an District,"No.10,Sec.4,Ren_ai Rd.,Da’an Dist.,Taipei City106,Taiwan,R.O.C."
TPEA000433,379140100P,臺北市政府,臺北市立聯合醫院仁愛院區,醫院,北市聯醫仁愛院區醫療大樓B1F醫療事務課,中華電信,,106,臺北市,大安區,106臺北市大安區仁愛路四段10號,25.0376757,121.5451133,Taipei City Government,"Taipei City Hospital, Renai Branch",Hospital,"The Medical Affairs Division in Medical building on B1F, Taipei City Hospital, Renai Branch",Taipei City,Da’an District,"No.10,Sec.4,Ren_ai Rd.,Da’an Dist.,Taipei City106,Taiwan,R.O.C."
TPEA000434,379140100P,臺北市政府,臺北市立聯合醫院仁愛院區,醫院,北市聯醫仁愛院區醫療大樓B1F藥劑科走廊中間,中華電信,,106,臺北市,大安區,106臺北市大安區仁愛路四段10號,25.0377782,121.5451806,Taipei City Government,"Taipei City Hospital, Renai Branch",Hospital,"The hallwayof Pharmacy in Medical building on B1F, Taipei City Hospital, Renai Branch",Taipei City,Da’an District,"No.10,Sec.4,Ren_ai Rd.,Da’an Dist.,Taipei City106,Taiwan,R.O.C."
TPEA000435,379140100P,臺北市政府,臺北市立聯合醫院仁愛院區,醫院,北市聯醫仁愛院區醫療大樓B1F供應室內中央,中華電信,,106,臺北市,大安區,106臺北市大安區仁愛路四段10號,25.0376641,121.5450922,Taipei City Government,"Taipei City Hospital, Renai Branch",Hospital,"The central of Supply Room in Medical building on B1F, Taipei City Hospital, Renai Branch",Taipei City,Da’an District,"No.10,Sec.4,Ren_ai Rd.,Da’an Dist.,Taipei City106,Taiwan,R.O.C."
TPEA000436,379140100P,臺北市政府,臺北市立聯合醫院仁愛院區,醫院,北市聯醫仁愛院區醫療大樓1F老人健檢中心櫃台,中華電信,,106,臺北市,大安區,106臺北市大安區仁愛路四段10號,25.037855,121.545462,Taipei City Government,"Taipei City Hospital, Renai Branch",Hospital,"The counter of Seniors check-up center in Medical building on 1F, Taipei City Hospital, Renai Branch",Taipei City,Da’an District,"No.10,Sec.4,Ren_ai Rd.,Da’an Dist.,Taipei City106,Taiwan,R.O.C."
TPEA000437,379140100P,臺北市政府,臺北市立聯合醫院仁愛院區,醫院,北市聯醫仁愛院區醫療大樓1F治療師辦公室門口,中華電信,,106,臺北市,大安區,106臺北市大安區仁愛路四段10號,25.037429,121.545425,Taipei City Government,"Taipei City Hospital, Renai Branch",Hospital,"The entrance of Therapist's office in Medical building on 1F, Taipei City Hospital, Renai Branch",Taipei City,Da’an District,"No.10,Sec.4,Ren_ai Rd.,Da’an Dist.,Taipei City106,Taiwan,R.O.C."
